Fuel Type Code,Station Name,Street Address,Intersection Directions,City,State,ZIP,Plus4,Station Phone,Status Code,Expected Date,Groups With Access Code,Access Days Time,Cards Accepted,EV Level1 EVSE Num,EV Level2 EVSE Num,EV DC Fast Count,EV Other Info,EV Network,EV Network Web,Geocode Status,Latitude,Longitude,Date Last Confirmed,ID,Updated At,Owner Type Code,Federal Agency ID,Federal Agency Name,Open Date,EV Connector Types
ELEC,Market 32,19 Centre Dr,,Plattsburgh,NY,12901,,518-562-3560,E,,Public,24 hours daily,,,2,,,Non-Networked,,200-9,44.695363,-73.492162,03/15/2021,65281,2022-02-10 19:42:29,SG,,,11/01/2014,J1772
ELEC,Rapidpark 210 W 102nd Street - Tesla Destination,210 W 102st St,,New York,NY,10025,,212-864-8605  877-798-3752,E,,Public,24 hours daily; see valet for access,,,3,,,Tesla Destination,https://www.tesla.com/destination-charging,200-9,40.797961,-73.968389,11/03/2020,115051,2021-03-11 23:22:17,P,,,09/01/2017,J1772 TESLA
ELEC,Edge,3954 NY-12,,Lyons Falls,NY,13368,,866-816-7584,E,,Public,24 hours daily,,,1,,,EV Connect,http://evconnect.com/,GPS,43.621010,-75.372871,04/08/2020,123107,2021-03-11 23:22:17,P,,,04/01/2019,J1772
ELEC,PANYNJ JFK Y GARAGE 4,JFK Terminal 5 JFK International Airport,,Queens,NY,11430,,888-758-4389,E,,Public,24 hours daily,,,2,,,ChargePoint Network,http://www.chargepoint.com/,GPS,40.645841,-73.779222,03/22/2022,147470,2022-03-22 00:31:22,,,,11/02/2019,J1772
ELEC,KINGSTON VW STATION 1,1249 Ulster Ave,,Kingston,NY,12401,,888-758-4389,E,,Public,24 hours daily,,,2,,,ChargePoint Network,http://www.chargepoint.com/,GPS,41.967208,-73.990374,03/22/2022,183754,2022-03-22 00:31:22,,,,02/04/2021,J1772
ELEC,EAST GARAGE 1 E GARAGE #1,2 Bay Club Dr,,Bayside,NY,11360,,888-758-4389,E,,Public,24 hours daily,,,2,,,ChargePoint Network,http://www.chargepoint.com/,GPS,40.778036,-73.780899,03/22/2022,190874,2022-03-22 00:31:22,,,,06/10/2021,J1772
ELEC,RIVERWATCH EV1 STATION1,1020 Warburton Ave,,Yonkers,NY,10701,,888-758-4389,E,,Public,24 hours daily,,,2,,,ChargePoint Network,http://www.chargepoint.com/,GPS,40.970419,-73.889216,03/22/2022,205066,2022-03-22 00:31:22,,,,01/20/2022,J1772
ELEC,WHITEFACE MT WHITEFACE MT 3,5021 Route 86,,Wilmington,NY,12997,,888-758-4389,E,,Public,24 hours daily,,,2,,,ChargePoint Network,http://www.chargepoint.com/,GPS,44.359064,-73.858857,03/22/2022,182171,2022-03-22 00:31:22,,,,01/27/2021,J1772
ELEC,The Alpine Lodge - Tesla Destination,264 Main St,,North Creek,NY,12853,,518-251-2451  877-798-3752,E,,Public,24 hours daily; for customer use only; see front desk for access,,,2,,,Tesla Destination,https://www.tesla.com/destination-charging,200-9,43.700216,-73.986141,11/03/2020,115200,2021-03-11 23:22:17,P,,,11/01/2018,TESLA
ELEC,Glen Avenue Suites,6 Glen Ave,,Cooperstown,NY,13326,,607-547-5054,E,,Public,8am-6pm daily; for guest use only,,,1,,,Non-Networked,,GPS,42.698540,-74.931170,03/03/2020,131661,2022-02-24 19:51:12,P,,,07/15/2019,J1772
ELEC,Legend Nissan,268 Jericho Turnpike,,Syosset,NY,11791,,516-496-8181,E,,Public,Dealership business hours,,,1,1,,Non-Networked,,200-9,40.809865,-73.507761,03/07/2022,44203,2022-03-07 19:49:53,P,,,11/30/2011,CHADEMO J1772 J1772COMBO
ELEC,POUGHEEPSIE EV POUGHKEEPSIE 1,41 Civic Center Plaza,,Poughkeepsie,NY,12601,,888-758-4389,E,,Public,Mon 12:00am - 12:00am; Tue 12:00am - 12:00am; Wed 12:00am - 12:00am; Thu 12:00am - 12:00am; Fri 12:00am - 12:00am; Sat 12:00am - 12:00am; Sun 12:00am - 12:00am,,,2,,,ChargePoint Network,http://www.chargepoint.com/,GPS,41.704770,-73.927310,03/22/2022,183106,2022-03-22 00:31:22,,,,01/27/2021,J1772
ELEC,NATIONAL GRID CHILIS GLENMONT,380 US-9W,,Glenmont,NY,12077,,888-758-4389,E,,Public,24 hours daily,,,2,,,ChargePoint Network,http://www.chargepoint.com/,GPS,42.603303,-73.790054,03/22/2022,162197,2022-03-22 00:31:22,,,,06/12/2020,J1772
ELEC,CHHA2 Garages,532 W 122nd St,,New York,NY,10027,,866-816-7584,E,,Public - Credit card at all times,24 hours daily; Also accepts PayPal and Apple Pay,A D M V,,4,,,EV Connect,http://evconnect.com/,GPS,40.811438,-73.960481,12/03/2020,168414,2021-03-11 23:22:17,P,,,08/28/2020,J1772
ELEC,333 Schermerhorn Garage - The Hub - Tesla Destination,333 Schermerhorn St,,Brooklyn,NY,11217,,718-395-4072  877-798-3752,E,,Public,24 hours daily; pay lot; see valet for access,,,4,,,Tesla Destination,https://www.tesla.com/destination-charging,200-9,40.687220,-73.981174,11/03/2020,150532,2021-03-11 23:22:17,P,,,09/30/2019,TESLA
ELEC,Stewart's Shops - Tesla Supercharger,5805 NY-9G,,Hudson,NY,12534,,877-798-3752,E,,Public - Credit card at all times,24 hours daily,A D Debit M V,,,8,,Tesla,https://www.tesla.com/supercharger,GPS,42.223280,-73.826266,02/10/2022,205810,2022-02-10 19:42:29,P,,,02/04/2022,TESLA
ELEC,ESF STATION 8,Stadium Place,,Syracuse,NY,13210,,888-758-4389,E,,Public,24 hours daily,,,2,,,ChargePoint Network,http://www.chargepoint.com/,GPS,43.035231,-76.139688,03/22/2022,197198,2022-03-22 00:31:22,,,,10/07/2021,J1772
ELEC,VOB KENSINGTON 1,15 Kensington Terrace,,Bronxville,NY,10708,,888-758-4389,E,,Public,Mon 3:00pm - 12:00am; Tue 3:00pm - 12:00am; Wed 3:00pm - 12:00am; Thu 3:00pm - 12:00am; Fri 3:00pm - 12:00am; Sat 6:00am - 12:00am; Sun 6:00am - 12:00am,,,2,,,ChargePoint Network,http://www.chargepoint.com/,GPS,40.942543,-73.834410,03/22/2022,165221,2022-03-22 00:31:22,,,,08/14/2020,J1772
ELEC,COLGATE LALLY LANE 1,Lally Ln,,Hamilton,NY,13346,,888-758-4389,E,,Public,24 hours daily,,,2,,,ChargePoint Network,http://www.chargepoint.com/,GPS,42.817555,-75.539265,03/22/2022,162445,2022-03-22 00:31:22,,,,06/12/2020,J1772
ELEC,799 SENECA STATION 9,799 Seneca St,,Buffalo,NY,14210,,888-758-4389,E,,Public,Mon 5:00pm - 10:00pm; Tue 5:00pm - 10:00pm; Wed 5:00pm - 10:00pm; Thu 5:00pm - 10:00pm; Fri 5:00pm - 10:00pm; Sat 8:00am - 10:00pm; Sun 8:00am - 10:00pm,,,1,,,ChargePoint Network,http://www.chargepoint.com/,GPS,42.875123,-78.847439,03/22/2022,191251,2022-03-22 00:31:22,,,,06/19/2021,J1772
ELEC,Momentive,260 Hudson River Rd,,Waterford,NY,12188,,866-816-7584,E,,Public,24 hours daily,,,1,,,EV Connect,http://evconnect.com/,GPS,42.817808,-73.666527,04/08/2020,123090,2021-03-11 23:22:17,P,,,04/01/2019,J1772
ELEC,GARDEN CHARGERS JOVIA #2,1000 Corporate Dr,,Westbury,NY,11590,,888-758-4389,E,,Public,24 hours daily,,,2,,,ChargePoint Network,http://www.chargepoint.com/,GPS,40.740106,-73.601104,03/22/2022,174506,2022-03-22 00:31:22,,,,01/27/2021,J1772
ELEC,NATIONAL GRID BUFFALO ZOO,300 Parkside Ave,,Buffalo,NY,14214,,888-758-4389,E,,Public,24 hours daily,,,2,,,ChargePoint Network,http://www.chargepoint.com/,GPS,42.937071,-78.851964,03/22/2022,162212,2022-03-22 00:31:22,,,,06/12/2020,J1772
ELEC,STONY BROOK UNV ENGINEERING,Engineering Dr,,Stony Brook,NY,11790,,888-758-4389,E,,Public,24 hours daily,,,2,,,ChargePoint Network,http://www.chargepoint.com/,GPS,40.912355,-73.125968,03/22/2022,169335,2022-03-22 00:31:22,,,,11/19/2020,J1772
ELEC,VERONA LA QUINTA 1,5390 Willow Pl,,Verona,NY,13478,,888-758-4389,E,,Public,24 hours daily,,,2,,,ChargePoint Network,http://www.chargepoint.com/,GPS,43.122160,-75.592600,03/22/2022,181238,2022-03-22 00:31:22,,,,01/27/2021,J1772
ELEC,OSSINING TOWN LOUIS ENGEL,Louis Engel Park (Waterfront Park) 161-185 We,,Ossining,NY,10562,,888-758-4389,E,,Public,24 hours daily,,,2,,,ChargePoint Network,http://www.chargepoint.com/,GPS,41.156094,-73.869640,03/22/2022,162297,2022-03-22 00:31:22,,,,06/12/2020,J1772
ELEC,Parkright 738 Greenwich Street - Tesla Destination,738 Greenwich St,,New York,NY,10014,,212-247-7303  877-798-3752,E,,Public,24 hours daily; see valet for access,,,3,,,Tesla Destination,https://www.tesla.com/destination-charging,200-9,40.735165,-74.007231,11/03/2020,115182,2021-03-11 23:22:17,P,,,08/15/2016,J1772 TESLA
ELEC,RCP MAIN PARKING,4254 NY-43,,Wynantskill,NY,12198,,888-758-4389,E,,Public,24 hours daily,,,2,,,ChargePoint Network,http://www.chargepoint.com/,GPS,42.653034,-73.652079,03/22/2022,196298,2022-03-22 00:31:22,,,,09/24/2021,J1772
ELEC,WARRENCOUNTY DPW 3,1348 U.S. 9,,Lake George,NY,12845,,888-758-4389,E,,Public,24 hours daily,,,2,,,ChargePoint Network,http://www.chargepoint.com/,GPS,43.359019,-73.701171,03/22/2022,150257,2022-03-22 00:31:22,,,,12/17/2019,J1772
ELEC,WYOMING COUNTY STATION 1,23 W Buffalo St,,Warsaw,NY,14569,,888-758-4389,E,,Public,24 hours daily,,,2,,,ChargePoint Network,http://www.chargepoint.com/,GPS,42.740624,-78.133705,03/22/2022,162368,2022-03-22 00:31:22,,,,06/12/2020,J1772
ELEC,GGMC Parking 75 Smith St Garage - Tesla Destination,75 Smith St,,Brooklyn,NY,11201,,718-643-0593  877-798-3752,E,,Public,24 hours daily; see valet for access,,,3,,,Tesla Destination,https://www.tesla.com/destination-charging,200-9,40.688799,-73.988642,11/03/2020,114913,2021-03-11 23:22:17,P,,,01/01/2016,J1772 TESLA
ELEC,PRESHYUN PRESTIGE NONGW2,768 E Chester St,,Kingston,NY,12401,,888-758-4389,E,,Public,24 hours daily,,,1,,,ChargePoint Network,http://www.chargepoint.com/,GPS,41.957714,-73.990067,03/22/2022,202247,2022-03-22 00:31:22,,,,12/09/2021,J1772
ELEC,NATIONAL GRID RIVERVIEW SOLAR,600 Riverwalk Pkwy,,Tonawanda,NY,14150,,888-758-4389,E,,Public,24 hours daily,,,2,,,ChargePoint Network,http://www.chargepoint.com/,GPS,43.000068,-78.910950,03/22/2022,162247,2022-03-22 00:31:22,,,,06/12/2020,J1772
ELEC,Village of Spencerport - Town Hall,27 West Ave,Located behind the Village office at South Union Street (Rt. 259),Spencerport,NY,14559,,585-352-4771,E,,Public,24 hours daily,,,2,,,Non-Networked,,GPS,43.191311,-77.801933,03/07/2022,63140,2022-03-07 19:49:53,LG,,,07/20/2014,J1772
ELEC,FURNACE POINT FPEV1,96 Furnace Point Rd,,Westport,NY,12993,,888-758-4389,E,,Public,24 hours daily,,,2,,,ChargePoint Network,http://www.chargepoint.com/,GPS,44.193264,-73.427220,03/22/2022,211842,2022-03-22 00:31:22,,,,03/17/2022,J1772
ELEC,RRH RIEDMAN CANP1,100 Kings Hwy S,,Rochester,NY,14617,,888-758-4389,E,,Public,24 hours daily,,,2,,,ChargePoint Network,http://www.chargepoint.com/,GPS,43.201813,-77.574597,03/22/2022,173967,2022-03-22 00:31:22,,,,01/27/2021,J1772
ELEC,Bear Metal Works,39 Scoville Ave,,Buffalo,NY,14206,,866-816-7584,E,,Public,24 hours daily; Also accepts Paypal,A D M V,,4,,,EV Connect,http://evconnect.com/,GPS,42.873786,-78.827735,04/08/2020,155026,2021-03-11 23:22:17,P,,,08/08/2019,J1772
ELEC,VIC AND CAMPUS SUGAR SHACK 1.1,8023 NY-30,,Paul Smiths,NY,12970,,888-758-4389,E,,Public,24 hours daily,,,2,,,ChargePoint Network,http://www.chargepoint.com/,GPS,44.448635,-74.258150,03/22/2022,154724,2022-03-22 00:31:22,,,,03/26/2020,J1772
ELEC,CITY AMSTERDAM EV4,117 Hewitt Street Shuttleworth Park,,Amsterdam,NY,12010,,888-758-4389,E,,Public,24 hours daily,,,2,,,ChargePoint Network,http://www.chargepoint.com/,GPS,42.960309,-74.172250,03/22/2022,186156,2022-03-22 00:31:22,,,,03/13/2021,J1772
ELEC,VANKAY PUBLIC STATION 2,5 McCrea Hill Rd,,Ballston Spa,NY,12020,,888-758-4389,E,,Public,24 hours daily,,,2,,,ChargePoint Network,http://www.chargepoint.com/,GPS,42.966560,-73.857687,03/22/2022,186633,2022-03-22 00:31:22,,,,03/27/2021,J1772
ELEC,iPark 400 E 85th St - Tesla Destination,400 E 85th St,,Manhattan,NY,10028,,212-650-1683  877-798-3752,E,,Public,24 hours daily; pay lot; see valet for access,,,4,,,Tesla Destination,https://www.tesla.com/destination-charging,200-8,40.776008,-73.949934,11/03/2020,122489,2021-03-11 23:22:17,P,,,03/01/2019,TESLA
ELEC,TWN POUND RIDGE STATION #1,80 Westchester Ave,,Pound Ridge,NY,10576,,888-758-4389,E,,Public,24 hours daily,,,2,,,ChargePoint Network,http://www.chargepoint.com/,GPS,41.190993,-73.553184,03/22/2022,188058,2022-03-22 00:31:22,,,,04/28/2021,J1772
ELEC,Shults Nissan,311 Fluvanna Ave,,Jamestown,NY,14701,,716-484-2780,E,,Public - Call ahead,Dealership business hours,,,1,,,Non-Networked,,200-9,42.115661,-79.253776,06/09/2020,49932,2021-03-11 23:22:17,P,,,10/25/2012,J1772
ELEC,Travelers Parking,160 W 10th Street,Located between 7th Ave & Waverly Place. Attendant will assist in charging vehicle.  Parking rates apply. Inquire within.,New York,NY,10014,,888-998-2546,E,,Public,MON: 24 hours | TUE: 24 hours | WED: 24 hours | THU: 24 hours | FRI: 24 hours | SAT: 24 hours | SUN: 24 hours,,,1,,,Blink Network,http://www.blinkcharging.com/,GPS,40.735094,-74.001870,03/21/2022,187817,2022-03-21 22:55:12,,,,04/20/2021,J1772
ELEC,ROCKLAND COUNTY STATION 2,100 Baron Court,,Monsey,NY,10952,,888-758-4389,E,,Public,24 hours daily,,,2,,,ChargePoint Network,http://www.chargepoint.com/,GPS,41.105846,-74.069285,03/22/2022,181699,2022-03-22 00:31:22,,,,01/27/2021,J1772
ELEC,TCR TOWNE EV STATION 2,12 California ave,,Albany,NY,12205,,888-758-4389,E,,Public,24 hours daily,,,2,,,ChargePoint Network,http://www.chargepoint.com/,GPS,42.704044,-73.813849,03/22/2022,181866,2022-03-22 00:31:22,,,,01/27/2021,J1772
ELEC,24 STATE STREET PITTSFORD,14 State St,,Pittsford,NY,14534,,888-758-4389,E,,Public,24 hours daily,,,2,,,ChargePoint Network,http://www.chargepoint.com/,GPS,43.091210,-77.514398,03/22/2022,162347,2022-03-22 00:31:22,,,,06/12/2020,J1772
ELEC,ULSTER COUNTY DSS 2,1 Development Court,,Kingston,NY,12401,,888-758-4389,E,,Public,24 hours daily,,,2,,,ChargePoint Network,http://www.chargepoint.com/,GPS,41.947950,-73.996324,03/22/2022,180145,2022-03-22 00:31:22,,,,01/27/2021,J1772
ELEC,Staten Island Mall - Richmond Ave Entrance,2655 Richmond Ave,,Staten Island,NY,10314,,888-264-2208,E,,Public,6am-12am daily,,,2,,,Volta,https://voltacharging.com/,GPS,40.581751,-74.168466,04/08/2021,166729,2022-02-10 19:42:29,P,,,08/31/2020,J1772
ELEC,S.A.N.Y. STATION TWO,1001 Park Ave,,Syracuse,NY,13204,,888-758-4389,E,,Public,24 hours daily,,,1,,,ChargePoint Network,http://www.chargepoint.com/,GPS,43.051903,-76.180115,03/22/2022,180984,2022-03-22 00:31:22,,,,01/27/2021,J1772
ELEC,COMFORT- CHARGE STATION 1,4054 ny-9l,,Lake George,NY,12845,,888-758-4389,E,,Public,24 hours daily,,,2,,,ChargePoint Network,http://www.chargepoint.com/,GPS,43.411860,-73.708450,03/22/2022,170683,2022-03-22 00:31:22,,,,12/31/2020,J1772
ELEC,DEWITT EV 1 CHARGEPOINT,5400 Butternut Drive,,East Syracuse,NY,13057,,888-758-4389,E,,Public,24 hours daily,,,2,,,ChargePoint Network,http://www.chargepoint.com/,GPS,43.045918,-76.049853,03/22/2022,180106,2022-03-22 00:31:22,,,,01/27/2021,J1772
ELEC,OPVMCVETERINARY OPVMC 1,3930 N Buffalo St,,Orchard Park,NY,14127,,888-758-4389,E,,Public,24 hours daily,,,2,,,ChargePoint Network,http://www.chargepoint.com/,GPS,42.776591,-78.746236,03/22/2022,185152,2022-03-22 00:31:22,,,,02/18/2021,J1772
ELEC,Icon Parking 169 W 95th Street - Tesla Destination,169  W 95th St,,New York,NY,10025,,212-749-6218  877-798-3752,E,,Public,24 hours daily; see valet for access,,,3,,,Tesla Destination,https://www.tesla.com/destination-charging,200-9,40.793528,-73.970240,11/03/2020,115030,2021-03-11 23:22:17,P,,,05/01/2016,J1772 TESLA
ELEC,BEVERWYCK STATION 4,12 Hickory Dr Beverwyck,,Slingerlands,NY,12159,,888-758-4389,E,,Public,24 hours daily,,,2,,,ChargePoint Network,http://www.chargepoint.com/,GPS,42.659280,-73.836850,03/22/2022,164421,2022-03-22 00:31:22,,,,07/22/2020,J1772
ELEC,TANNERSVILLE MUNICIPAL LOT,20 Tompkins St,,Tannersville,NY,12485,,888-758-4389,E,,Public,24 hours daily,,,2,,,ChargePoint Network,http://www.chargepoint.com/,GPS,42.195133,-74.132420,03/22/2022,152438,2022-03-22 00:31:22,,,,01/15/2020,J1772
ELEC,iPark 247 N 7th Street - Tesla Destination,249 N 7th St,,Brooklyn,NY,11248,,929-337-8633  877-798-3752,E,,Public,24 hours daily; see valet for access,,,3,,,Tesla Destination,https://www.tesla.com/destination-charging,200-9,40.716085,-73.954508,11/03/2020,114894,2021-03-11 23:22:17,P,,,03/01/2017,J1772 TESLA
ELEC,854ELLICOTT 589 ELLICOTT 7,589 Ellicott St,,Buffalo,NY,14203,,888-758-4389,E,,Public,24 hours daily,,,2,,,ChargePoint Network,http://www.chargepoint.com/,GPS,42.895780,-78.868307,03/22/2022,169907,2022-03-22 00:31:22,,,,12/04/2020,J1772
ELEC,NYSE Thruway - NYPA,447 I-90W,,Angola,NY,14006,,866-816-7584,E,,Public - Credit card at all times,24 hours daily; Also accepts PayPal,A APPLE_PAY D M V,,,2,,EV Connect,http://evconnect.com/,GPS,42.635718,-78.990468,06/07/2021,190222,2021-12-06 18:36:15,LG,,,03/04/2021,CHADEMO J1772COMBO
ELEC,TPWC TPWC 5,2594 Western Av,,Altamont,NY,12009,,888-758-4389,E,,Public,24 hours daily,,,1,,,ChargePoint Network,http://www.chargepoint.com/,GPS,42.714277,-73.935848,03/22/2022,211652,2022-03-22 00:31:22,,,,03/12/2022,J1772
ELEC,MARKET 32 EV BARNEY RD EV5,1 Barney Rd,,Clifton Park,NY,12065,,888-758-4389,E,,Public,24 hours daily,,,2,,,ChargePoint Network,http://www.chargepoint.com/,GPS,42.845347,-73.807945,03/22/2022,156642,2022-03-22 00:31:22,,,,05/23/2020,J1772
ELEC,Queens Borough Hall - Municipal Parking Lot,80-25 126th St,,Queens,NY,11415,,866-816-7584,E,,Public,24 hours daily,,,4,,,EV Connect,http://evconnect.com/,GPS,40.714376,-73.826095,04/08/2020,123134,2021-03-11 23:22:17,P,,,04/01/2019,J1772
ELEC,HUDSON PRESERVE BLDG 19 #13,1601 Beryl Way,,Watervliet,NY,12189,,888-758-4389,E,,Public,24 hours daily,,,2,,,ChargePoint Network,http://www.chargepoint.com/,GPS,42.732864,-73.726690,03/22/2022,143251,2022-03-22 00:31:22,,,,08/15/2019,J1772
ELEC,Paumanok Vineyards - Tesla Destination,1074 Main Rd,,Aquebogue,NY,11931,,631-722-8800  877-798-3752,E,,Public - Call ahead,24 hours daily; for customer use only,,,1,,,Tesla Destination,https://www.tesla.com/destination-charging,GPS,40.948725,-72.602594,11/03/2020,114880,2021-03-11 23:22:17,P,,,09/01/2017,TESLA
ELEC,The Peninsula Hotel New York - Tesla Destination,700 5th Ave,,New York,NY,10019,,212-956 2888  877-798-3752,E,,Public,24 hours daily; for customer use only; see valet for access,,,1,,,Tesla Destination,https://www.tesla.com/destination-charging,200-8,40.761780,-73.975057,11/03/2020,115181,2021-03-11 23:22:17,P,,,01/01/2016,TESLA
ELEC,iPark NYC 555 West Garage Corp. - Tesla Destination,549  W 23rd St,,New York,NY,10011,,855-472-7569  877-798-3752,E,,Public,24 hours daily; for customer use only; see valet for access,,,3,,,Tesla Destination,https://www.tesla.com/destination-charging,200-9,40.748931,-74.006078,11/03/2020,150502,2021-03-11 23:22:17,P,,,09/30/2019,J1772 TESLA
ELEC,Parking Garage,2478 Jerome Ave,,Bronx,NY,10468,,866-816-7584,E,,Public,Garage business hours,,,1,,,EV Connect,http://evconnect.com/,200-8,40.863131,-73.900529,08/04/2021,94830,2021-12-06 18:36:15,P,,,01/08/2015,J1772
ELEC,BUFFALO STATE EV STATION 3,Moore Pl,,Buffalo,NY,14222,,888-758-4389,E,,Public,24 hours daily,,,2,,,ChargePoint Network,http://www.chargepoint.com/,GPS,42.935779,-78.882930,03/22/2022,191383,2022-03-22 00:31:22,,,,06/23/2021,J1772
ELEC,HARMONY MILLS 1 WEST 1 1.4,100 N Mohawk St,,Cohoes,NY,12047,,888-758-4389,E,,Public,24 hours daily,,,2,,,ChargePoint Network,http://www.chargepoint.com/,GPS,42.781513,-73.705635,03/22/2022,174726,2022-03-22 00:31:22,,,,01/27/2021,J1772
ELEC,TATABROOKFIELD #6,11 E Loop Rd,,New York,NY,10044,,888-758-4389,E,,Public,24 hours daily,,,1,,,ChargePoint Network,http://www.chargepoint.com/,GPS,40.755160,-73.955605,03/22/2022,174183,2022-03-22 00:31:22,,,,01/27/2021,J1772
ELEC,SUNY NEW PALTZ SUNY NEW PALTZ,98 S Manheim Blvd,,New Paltz,NY,12561,,888-758-4389,E,,Public,24 hours daily,,,2,,,ChargePoint Network,http://www.chargepoint.com/,GPS,41.738917,-74.080123,03/22/2022,162190,2022-03-22 00:31:22,,,,06/12/2020,J1772
ELEC,IONIQ STATION2,5190 Commercial Dr,,Yorkville,NY,13495,,888-758-4389,E,,Public,24 hours daily,,,1,,,ChargePoint Network,http://www.chargepoint.com/,GPS,43.113663,-75.285065,03/22/2022,204500,2022-03-22 00:31:22,,,,01/08/2022,J1772
ELEC,Oxford Memorial Library,8 Fort Hill Park,Chargers under repair.,Oxford,NY,13830,,888-998-2546,E,,Public,MON: 24 hours | TUE: 24 hours | WED: 24 hours | THU: 24 hours | FRI: 24 hours | SAT: 24 hours | SUN: 24 hours,,,2,,,Blink Network,http://www.blinkcharging.com/,GPS,42.440634,-75.596977,03/21/2022,195862,2022-03-21 22:55:12,,,,09/13/2021,J1772
ELEC,Rapidpark 25-27 Beekman Street - Tesla Destination,25-27 Beekman St,,New York,NY,10038,,212-766-0871  877-798-3752,E,,Public,24 hours daily; see valet for access,,,3,,,Tesla Destination,https://www.tesla.com/destination-charging,200-9,40.710628,-74.006186,11/03/2020,115071,2021-03-11 23:22:17,P,,,09/01/2017,J1772 TESLA
ELEC,RRH RIEDMAN CTR NG5,1455 East Ridge Road,,Rochester,NY,14621,,888-758-4389,E,,Public,24 hours daily,,,2,,,ChargePoint Network,http://www.chargepoint.com/,GPS,43.197330,-77.578410,03/22/2022,174293,2022-03-22 00:31:22,,,,01/27/2021,J1772
ELEC,TOWNE TV EV 2,3125-3133 Carman Rd,,Schenectady,NY,12303,,888-758-4389,E,,Public,24 hours daily,,,2,,,ChargePoint Network,http://www.chargepoint.com/,GPS,42.762820,-73.939980,03/22/2022,192934,2022-03-22 00:31:22,,,,07/17/2021,J1772
ELEC,SARATOGA CASINO STATION 5,342 Jefferson St,,Saratoga Springs,NY,12866,,888-758-4389,E,,Public,24 hours daily,,,2,,,ChargePoint Network,http://www.chargepoint.com/,GPS,43.062104,-73.776278,03/22/2022,190791,2022-03-22 00:31:22,,,,06/08/2021,J1772
ELEC,HW PATCHOGUE EV STATION 1,99 Waverly Ave,,Patchogue,NY,11772,,888-758-4389,E,,Public,24 hours daily,,,2,,,ChargePoint Network,http://www.chargepoint.com/,GPS,40.768195,-73.024370,03/22/2022,191588,2022-03-22 00:31:22,,,,06/29/2021,J1772
ELEC,SPOTCOWORK HENRIETTA,21 Goodway Drive,,Rochester,NY,14623,,888-758-4389,E,,Public,24 hours daily,,,2,,,ChargePoint Network,http://www.chargepoint.com/,GPS,43.091965,-77.580734,03/22/2022,150809,2022-03-22 00:31:22,,,,12/27/2019,J1772
ELEC,STRONG MUSEUM STRONG L1 #4,1 Manhattan Square Dr,,Rochester,NY,14607,,888-758-4389,E,,Public,Mon 8:00am - 5:00pm; Tue 8:00am - 5:00pm; Wed 8:00am - 5:00pm; Thu 8:00am - 5:00pm; Fri 8:00am - 8:00pm; Sat 8:00am - 8:00pm; Sun 8:00am - 5:00pm,,,2,,,ChargePoint Network,http://www.chargepoint.com/,GPS,43.151898,-77.600937,03/22/2022,146983,2022-03-22 00:31:22,,,,10/16/2019,J1772
ELEC,EXECUTIVE PARK #1,2 Executive Blvd,,Montebello,NY,10901,,888-758-4389,E,,Public,24 hours daily,,,2,,,ChargePoint Network,http://www.chargepoint.com/,GPS,41.120190,-74.116860,03/22/2022,175755,2022-03-22 00:31:22,,,,01/27/2021,J1772
ELEC,Icon Parking 150 E 58th Street - Tesla Destination,150 E 58th St,,New York,NY,10155,,212-755-8678  877-798-3752,E,,Public,24 hours daily; see valet for access,,,3,,,Tesla Destination,https://www.tesla.com/destination-charging,200-9,40.761610,-73.967750,11/03/2020,115019,2021-03-11 23:22:17,P,,,05/01/2016,J1772 TESLA
ELEC,498 E 67th St,498 E 67th St,,New York,NY,10065,,888-356-8911,E,,Public,24 hours daily,,,2,,,FLO,https://flo.ca/,GPS,40.763723,-73.956354,03/22/2022,194169,2022-03-22 01:47:29,,,,08/21/2021,J1772
ELEC,MUNI LOT STATION 1,2578 Main St,,Lake Placid,NY,12946,,888-758-4389,E,,Public,24 hours daily,,,2,,,ChargePoint Network,http://www.chargepoint.com/,GPS,44.285329,-73.984273,03/22/2022,193883,2022-03-22 00:31:22,,,,08/14/2021,J1772
ELEC,STATION TOR1 CRAWFORD NORTH,122 N Ridge St,,Port Chester,NY,10573,,888-758-4389,E,,Public,24 hours daily,,,2,,,ChargePoint Network,http://www.chargepoint.com/,GPS,41.015065,-73.686638,03/22/2022,145318,2022-03-22 00:31:22,,,,09/17/2019,J1772
ELEC,Lorell Professional Building,1476 Deer Park Ave,,North Babylon,NY,11703,,866-816-7584,E,,Public,24 hours daily; Also accepts Paypal,A D M V,,4,,,EV Connect,http://evconnect.com/,GPS,40.747521,-73.324952,04/08/2020,154899,2021-03-11 23:22:17,P,,,04/11/2019,J1772
ELEC,Village of Arcade - Municipal Parking Lot,17 Church St,,Arcade,NY,14009,,585-492-1111,E,,Public,24 hours daily,,,2,,,Non-Networked,,GPS,42.534763,-78.423960,06/09/2020,157963,2021-03-11 23:22:17,P,,,05/15/2020,J1772
ELEC,Eastway Parking,225 W 49th St,Located between Broadway & 8th Ave. - Attendant will assist in charging vehicle.  Parking rates apply. Inquire within.,New York,NY,10019,,888-998-2546,E,,Public,MON: 24 hours | TUE: 24 hours | WED: 24 hours | THU: 24 hours | FRI: 24 hours | SAT: 24 hours | SUN: 24 hours,,,2,,,Blink Network,http://www.blinkcharging.com/,GPS,40.762115,-73.985254,03/21/2022,187765,2022-03-21 22:55:12,,,,04/19/2021,J1772
ELEC,SUNY NEW PALTZ ROUTE 32 (3),80 NY-32,,New Paltz,NY,12561,,888-758-4389,E,,Public,24 hours daily,,,2,,,ChargePoint Network,http://www.chargepoint.com/,GPS,41.738571,-74.079661,03/22/2022,122791,2022-03-22 00:31:22,,,,05/16/2019,J1772
ELEC,Quik Park 82nd Street LLC - Tesla Destination,350 E. 82nd St,,New York,NY,10028,,212-352-0514  877-798-3752,E,,Public,24 hours daily; for customer use only; see valet for access,,,3,,,Tesla Destination,https://www.tesla.com/destination-charging,200-9,40.774316,-73.951909,11/03/2020,115108,2021-03-11 23:22:17,P,,,01/01/2016,J1772 TESLA
ELEC,Fairfield Inn by Marriott Rochester South - Tesla Destination,4695 W Henrietta Rd,,Rochester,NY,14623,,585-334-3350  877-798-3752,E,,Public,24 hours daily; for customer use only; see front desk for access,,,3,,,Tesla Destination,https://www.tesla.com/destination-charging,200-8,43.059322,-77.651957,11/03/2020,115223,2021-03-11 23:22:17,P,,,11/01/2018,J1772 TESLA
ELEC,RRH RIEDMAN CAMP 8,100 Kings Hwy S,,Rochester,NY,14617,,888-758-4389,E,,Public,24 hours daily,,,2,,,ChargePoint Network,http://www.chargepoint.com/,GPS,43.202069,-77.574531,03/22/2022,173962,2022-03-22 00:31:22,,,,01/27/2021,J1772
ELEC,MASPETH FEDERAL MASPETH 1,56-18 69th St,,Maspeth,NY,11378,,888-758-4389,E,,Public,24 hours daily,,,2,,,ChargePoint Network,http://www.chargepoint.com/,GPS,40.726232,-73.895705,03/22/2022,162165,2022-03-22 00:31:22,,,,06/12/2020,J1772
ELEC,PICOTTE 1450 WESTERN 1.,1450 western ave,,Albany,NY,12203,,888-758-4389,E,,Public,24 hours daily,,,2,,,ChargePoint Network,http://www.chargepoint.com/,GPS,42.680122,-73.838684,03/22/2022,175372,2022-03-22 00:31:22,,,,01/27/2021,J1772
ELEC,TG EV STATIONS LEFT STATION,35 State Route 299,,Gardiner,NY,12525,,888-758-4389,E,,Public,24 hours daily,,,2,,,ChargePoint Network,http://www.chargepoint.com/,GPS,41.744570,-74.117940,03/22/2022,175242,2022-03-22 00:31:22,,,,01/27/2021,J1772
ELEC,Treiber Nissan,320 N Comrie Ave,,Johnstown,NY,12095,,518-736-1300,E,,Public - Call ahead,Dealership business hours,,,1,,,Non-Networked,,200-9,43.025044,-74.358103,06/09/2020,44344,2021-03-11 23:22:17,P,,,11/30/2011,J1772
ELEC,SAVARINO COMPAN BRL #1,"BRL Covered Lot, single charger 1 South Stree",,Buffalo,NY,14204,,888-758-4389,E,,Public,24 hours daily,,,1,,,ChargePoint Network,http://www.chargepoint.com/,GPS,42.864134,-78.868096,03/22/2022,164159,2022-03-22 00:31:22,,,,07/11/2020,J1772
ELEC,Albany Parking Authority,2 Columbia St,,Albany,NY,12207,,213-318-4851,E,,Public,24 hours daily,A D M V,,5,,,EV Connect,http://evconnect.com/,GPS,42.650590,-73.749073,03/15/2021,185449,2021-12-06 18:36:15,P,,,05/02/2019,J1772
ELEC,S.A.N.Y. PARKING FOUR,160 School Ln,,Frankfort,NY,13340,,888-758-4389,E,,Public,24 hours daily,,,1,,,ChargePoint Network,http://www.chargepoint.com/,GPS,43.076151,-75.169179,03/22/2022,164389,2022-03-22 00:31:22,,,,07/21/2020,J1772
ELEC,The Custer Institute,1115 Main Bayview Rd,,Southold,NY,11971,,888-780-0062,E,,Public,24 hours daily,,,4,,,EV Connect,http://evconnect.com/,GPS,41.052046,-72.434680,04/08/2020,152743,2021-03-11 23:22:17,P,,,01/20/2020,J1772
ELEC,Angelinas Ristorante - Tesla Destination,399 Ellis St,,Staten Island,NY,10307,,877-798-3752  877-798-3752,E,,Public,24 hours daily; for customer use only; see front desk for access,,,3,,,Tesla Destination,https://www.tesla.com/destination-charging,200-9,40.513370,-74.251370,11/03/2020,168580,2021-03-11 23:22:17,P,,,11/03/2020,TESLA
ELEC,Quikpark 173 W 12th Street - Tesla Destination,173 W 12th St,,New York,NY,10011,,646-336-6225  877-798-3752,E,,Public,24 hours daily; see valet for access,,,3,,,Tesla Destination,https://www.tesla.com/destination-charging,200-8,40.737200,-74.000070,11/03/2020,115032,2021-03-11 23:22:17,P,,,09/01/2017,J1772 TESLA
ELEC,Standard Parking 1 Metrotech - Tesla Destination,351 Jay St,,Brooklyn,NY,11201,,212-321-7500  877-798-3752,E,,Public,24 hours daily; see valet for access,,,3,,,Tesla Destination,https://www.tesla.com/destination-charging,200-9,40.693216,-73.986716,11/03/2020,114900,2021-03-11 23:22:17,P,,,11/01/2018,J1772 TESLA
ELEC,BNL South side of Bldg 918,Lawrence Dr,,Upton,NY,11961,,,E,,Public - Credit card at all times,24 hours daily; Drivers must bring their own J1772 cordset for Level 1 charging,A D M V,1,,,,Non-Networked,,GPS,40.872412,-72.878082,02/22/2021,184636,2022-02-10 21:00:18,FG,8.0,U.S. Department of Energy,01/15/2021,NEMA515
ELEC,UEM CAR CHARGER CHARGER 1,9 Pruyns Island Dr,,Glens Falls,NY,12801,,888-758-4389,E,,Public,24 hours daily,,,2,,,ChargePoint Network,http://www.chargepoint.com/,GPS,43.296474,-73.644080,03/22/2022,189256,2022-03-22 00:31:22,,,,05/05/2021,J1772
ELEC,BURNS MGT THE SPRINGS #3,60 Weibel Ave,,Saratoga Springs,NY,12866,,888-758-4389,E,,Public,24 hours daily,,,2,,,ChargePoint Network,http://www.chargepoint.com/,GPS,43.093051,-73.743350,03/22/2022,174328,2022-03-22 00:31:22,,,,01/27/2021,J1772
ELEC,Genesee Community College,1 College Rd,,Batavia,NY,14020,,866-816-7584,E,,Public,24 hours daily; Also accepts Paypal,A D M V,,2,,,EV Connect,http://evconnect.com/,GPS,43.016226,-78.137984,04/08/2020,155097,2021-03-11 23:22:17,P,,,08/05/2018,J1772
ELEC,APDC ADMIN LOT PORT 1.1,106 Smith Blvd,,Albany,NY,12202,,888-758-4389,E,,Public,24 hours daily,,,2,,,ChargePoint Network,http://www.chargepoint.com/,GPS,42.626225,-73.758180,03/22/2022,181004,2022-03-22 00:31:22,,,,01/27/2021,J1772
ELEC,The St. Regis,Two East 55th Street,,New York,NY,10022,,800-663-5633,E,,Public,MO: Not Specified; TU: Not Specified; WE: Not Specified; TH: Not Specified; FR: Not Specified; SA: Not Specified; SU: Not Specified,,,1,,,SemaCharge Network,https://semaconnect.com/,GPS,40.761398,-73.974613,03/22/2022,170181,2022-03-22 00:22:04,,,,12/16/2020,J1772
ELEC,Hilton Garden Inn - Downtown Ithaca - Tesla Destination,130 E Seneca St,,Ithaca,NY,14850,,607-277-8900  877-798-3752,E,,Public - Call ahead,24 hours daily; for customer use only,,,2,,,Tesla Destination,https://www.tesla.com/destination-charging,200-9,42.440673,-76.497375,11/03/2020,114958,2021-03-11 23:22:17,P,,,11/01/2018,TESLA
ELEC,Saint George Courthouse,54 Central Ave,,Staten Island,NY,10301,,718-524-1190  866-816-7584,E,,Public,24 hours daily,,,5,,,EV Connect,http://evconnect.com/,200-9,40.639470,-74.076912,04/08/2020,65296,2021-03-11 23:22:17,LG,,,08/08/2016,J1772
ELEC,MUNICIPAL EVSE MURRAY STREET,39 Murray St,,Glens Falls,NY,12801,,888-758-4389,E,,Public,24 hours daily,,,2,,,ChargePoint Network,http://www.chargepoint.com/,GPS,43.303196,-73.648670,03/22/2022,155245,2022-03-22 00:31:22,,,,04/08/2020,J1772
ELEC,Standard Parking 270 Greenwich - Tesla Destination,270 Greenwich St,,New York,NY,10007,,800-836-6666  877-798-3752,E,,Public,24 hours daily; pay lot; see valet for access,,,3,,,Tesla Destination,https://www.tesla.com/destination-charging,200-9,40.715543,-74.011435,11/03/2020,115076,2021-03-11 23:22:17,P,,,11/01/2018,J1772 TESLA
ELEC,CANTONCHARGE DC CHARGER,8 Hodskin St,,Canton,NY,13617,,888-758-4389,E,,Public,24 hours daily,,,,1,,ChargePoint Network,http://www.chargepoint.com/,GPS,44.596222,-75.171020,03/22/2022,154480,2022-03-22 00:31:22,,,,03/14/2020,J1772COMBO
ELEC,Village of Canastota,205 S Peterboro St,,Canastota,NY,13032,,315-697-7559,E,,Public,24 hours daily,,,2,,,Non-Networked,,GPS,43.077499,-75.752256,05/06/2021,187159,2022-02-10 19:42:29,P,,,03/22/2021,J1772
ELEC,5 FARRELL ROAD VIC EVSE2,3743 Main St,,Willsboro,NY,12996,,888-758-4389,E,,Public,24 hours daily,,,2,,,ChargePoint Network,http://www.chargepoint.com/,GPS,44.361485,-73.391304,03/22/2022,193247,2022-03-22 00:31:22,,,,07/28/2021,J1772
ELEC,City Parking E 61st Street - Tesla Destination,425 E 61st St,,New York,NY,10065,,212-219-3413  877-798-3752,E,,Public,24 hours daily; see valet for access,,,3,,,Tesla Destination,https://www.tesla.com/destination-charging,200-9,40.760522,-73.959278,11/03/2020,115135,2021-03-11 23:22:17,P,,,09/01/2017,J1772 TESLA
ELEC,iPark NYC 75 Wall Street - Tesla Destination,75 Wall St,,New York,NY,10005,,855-472-7569  877-798-3752,E,,Public,24 hours daily; for customer use only; see valet for access,,,3,,,Tesla Destination,https://www.tesla.com/destination-charging,200-9,40.705042,-74.008118,11/03/2020,122491,2021-03-11 23:22:17,P,,,03/01/2019,J1772 TESLA
ELEC,ATRIUM EVCHARGE PRC-EV1,634 Plank Rd,,Clifton Park,NY,12065,,888-758-4389,E,,Public,24 hours daily,,,2,,,ChargePoint Network,http://www.chargepoint.com/,GPS,42.866741,-73.777990,03/22/2022,174928,2022-03-22 00:31:22,,,,01/27/2021,J1772
ELEC,CITY HALL 12534 CITY HALL 3,542 Warren St,,Hudson,NY,12534,,888-758-4389,E,,Public,24 hours daily,,,2,,,ChargePoint Network,http://www.chargepoint.com/,GPS,42.249016,-73.784650,03/22/2022,149513,2022-03-22 00:31:22,,,,11/26/2019,J1772
ELEC,TSS ALBANY STATIONS 1 & 2,2 Commerce Park Dr,,Schenectady,NY,12309,,888-758-4389,E,,Public,24 hours daily,,,2,,,ChargePoint Network,http://www.chargepoint.com/,GPS,42.832880,-73.903920,03/22/2022,183223,2022-03-22 00:31:22,,,,01/27/2021,J1772
ELEC,854ELLICOTT 589 ELLICOTT 6,589 Ellicott St,,Buffalo,NY,14203,,888-758-4389,E,,Public,24 hours daily,,,2,,,ChargePoint Network,http://www.chargepoint.com/,GPS,42.895761,-78.868331,03/22/2022,181837,2022-03-22 00:31:22,,,,01/27/2021,J1772
ELEC,ADAMS STATION 708 CATLYN CT,708 Catlyn Ct,,Delmar,NY,12054,,888-758-4389,E,,Public,24 hours daily,,,2,,,ChargePoint Network,http://www.chargepoint.com/,GPS,42.606503,-73.848000,03/22/2022,165392,2022-03-22 00:31:22,,,,08/22/2020,J1772
ELEC,VISITORS TOWN OF CLAY,4401 NY-31,,Clay,NY,13041,,888-758-4389,E,,Public,24 hours daily,,,2,,,ChargePoint Network,http://www.chargepoint.com/,GPS,43.187020,-76.208299,03/22/2022,162291,2022-03-22 00:31:22,,,,06/12/2020,J1772
ELEC,HAMPTON INN STATION 4,1120 South Ave,,Staten Island,NY,10314,,888-758-4389,E,,Public,24 hours daily,,,2,,,ChargePoint Network,http://www.chargepoint.com/,GPS,40.612678,-74.178885,03/22/2022,181661,2022-03-22 00:31:22,,,,01/27/2021,J1772
ELEC,Angelina's Ristorante - Tesla Destination,399 Ellis St,,Staten Island,NY,10307,,718-227-2900  877-798-3752,E,,Public,24 hours daily; see front desk for access,,,3,,,Tesla Destination,https://www.tesla.com/destination-charging,200-9,40.513370,-74.251370,11/03/2020,115240,2021-03-11 23:22:17,P,,,11/01/2018,TESLA
ELEC,Village of Montour Falls,300 W Main St,Behind Main Street Park,Montour Falls,NY,14865,,607-535-7367  866-816-7584,E,,Public,24 hours daily,,,2,,,EV Connect,http://evconnect.com/,GPS,42.346621,-76.848004,06/09/2020,121285,2021-03-11 23:22:17,LG,,,04/01/2018,J1772
ELEC,TRISTATELUXURY LOT CHARGER,1249 E Jericho Turnpike,,Huntington,NY,11743,,888-758-4389,E,,Public,24 hours daily,,,2,,,ChargePoint Network,http://www.chargepoint.com/,GPS,40.832688,-73.359725,03/22/2022,162157,2022-03-22 00:31:22,,,,06/12/2020,J1772
ELEC,EPLLC ELECTRONICS 1,497 Electronics Pkwy,,Liverpool,NY,13088,,888-758-4389,E,,Public,24 hours daily,,,2,,,ChargePoint Network,http://www.chargepoint.com/,GPS,43.106861,-76.184909,03/22/2022,174520,2022-03-22 00:31:22,,,,01/27/2021,J1772
ELEC,Meier's Creek Brewing Co,33 Rippleton Rd,Located in the parking lot,Cazenovia,NY,13035,,315-815-4022,E,,Public,24 hours daily,,,3,,,Non-Networked,,200-9,42.919517,-75.866050,07/14/2021,79175,2022-02-10 19:42:29,P,,,07/01/2016,J1772
ELEC,Art Delta New York,25-20 Brooklyn Queens Expy,,Woodside,NY,11377,,866-816-7584,E,,Public,Office business hours; for employee and guest use only,,,2,,,EV Connect,http://evconnect.com/,GPS,40.763053,-73.902931,06/09/2020,94869,2021-03-11 23:22:17,P,,,06/29/2016,J1772
ELEC,Best Western Plus Victor Inn & Suites,7449 NY-96,Front Parking,Victor,NY,14564,,888-998-2546,E,,Public,MON: 24 hours | TUE: 24 hours | WED: 24 hours | THU: 24 hours | FRI: 24 hours | SAT: 24 hours | SUN: 24 hours,,,4,,,Blink Network,http://www.blinkcharging.com/,GPS,43.005833,-77.444589,03/21/2022,197044,2022-03-21 22:55:12,,,,10/01/2021,J1772
ELEC,3050 Corlear Ave - Nagle Parking Inc. - Tesla Destination,3050 Corlear Ave,,Bronx,NY,10463,,718-708-5077  877-798-3752,E,,Public,24 hours daily; pay lot; see valet for access,,,4,,,Tesla Destination,https://www.tesla.com/destination-charging,200-9,40.879900,-73.907762,11/03/2020,150624,2021-03-11 23:22:17,P,,,09/30/2019,TESLA
ELEC,LAFAYETTE BOYNT LAF BOYNT 1,901 Boynton Ave,,Bronx,NY,10473,,888-758-4389,E,,Public,24 hours daily,,,2,,,ChargePoint Network,http://www.chargepoint.com/,GPS,40.821451,-73.877642,03/22/2022,162499,2022-03-22 00:31:22,,,,06/12/2020,J1772
ELEC,SKICENTER EVSE2,1562 Osceola Rd,,Camden,NY,13316,,888-758-4389,E,,Public,24 hours daily,,,2,,,ChargePoint Network,http://www.chargepoint.com/,GPS,43.504623,-75.700510,03/22/2022,197701,2022-03-22 00:31:22,,,,10/14/2021,J1772
ELEC,STEINSCHINDER 8W MAIN ST,8 W Main St,,Hastings-on-Hudson,NY,10706,,888-758-4389,E,,Public,24 hours daily,,,2,,,ChargePoint Network,http://www.chargepoint.com/,GPS,40.994445,-73.882657,03/22/2022,192753,2022-03-22 00:31:22,,,,07/13/2021,J1772
ELEC,Hamlet,56 Marion Ave,,Saratoga Springs,NY,12866,,518-691-3119,E,,Public,24 hours daily,,,4,,,LIVINGSTON,https://www.solution.energy/evse/,GPS,43.090647,-73.772099,06/07/2021,189519,2022-02-10 19:42:29,P,,,07/30/2020,J1772
ELEC,Winter Creek,1 Winter Creek Blvd,,Latham,NY,12110,,518-691-3119,E,,Public,24 hours daily,,,6,,,LIVINGSTON,https://www.solution.energy/evse/,GPS,42.731056,-73.763083,06/07/2021,189541,2022-02-10 19:42:29,P,,,08/19/2020,J1772
ELEC,GREECE TOWN HAL GREECE SOUTH 2,1 Vince Tofany Blvd,,Rochester,NY,14612,,888-758-4389,E,,Public,24 hours daily,,,2,,,ChargePoint Network,http://www.chargepoint.com/,GPS,43.258197,-77.699130,03/22/2022,180741,2022-03-22 00:31:22,,,,01/27/2021,J1772
ELEC,BEDFORDEV METRO NORTH RR1,11 Railroad Ave,,Bedford Hills,NY,10507,,888-758-4389,E,,Public,24 hours daily,,,2,,,ChargePoint Network,http://www.chargepoint.com/,GPS,41.237361,-73.700105,03/22/2022,162335,2022-03-22 00:31:22,,,,06/12/2020,J1772
ELEC,OMG EV CHARGER EVCHARGER3,656 Co Hwy 33,,Cooperstown,NY,13326,,888-758-4389,E,,Public,24 hours daily,,,2,,,ChargePoint Network,http://www.chargepoint.com/,GPS,42.626144,-74.945076,03/22/2022,203019,2022-03-22 00:31:22,,,,12/24/2021,J1772
ELEC,BURNS MGT HV 1,102 Bleeker Rd,,Guilderland,NY,12084,,888-758-4389,E,,Public,24 hours daily,,,2,,,ChargePoint Network,http://www.chargepoint.com/,GPS,42.690931,-73.887646,03/22/2022,173886,2022-03-22 00:31:22,,,,01/27/2021,J1772
ELEC,Greenville Center,855 Central Park Ave,,Scarsdale,NY,10583,,877-455-3833,E,,Public,24 hours daily,,,,1,,eVgo Network,https://www.evgo.com/,GPS,40.995411,-73.819055,03/22/2022,198299,2022-03-22 01:26:59,,,,10/25/2021,CHADEMO J1772COMBO
ELEC,B & C Auto Service,725 Route 6,,Mahopac,NY,10541,,866-816-7584,E,,Public - Credit card at all times,24 hours daily; Also accepts Paypal,A D M V,,2,,,EV Connect,http://evconnect.com/,200-9,41.375328,-73.726893,10/09/2020,166305,2021-03-11 23:22:17,P,,,06/23/2020,J1772
ELEC,TOWN GERMANTOWN MUNICIPAL LOT,189 Main St,,Germantown,NY,12526,,888-758-4389,E,,Public,24 hours daily,,,2,,,ChargePoint Network,http://www.chargepoint.com/,GPS,42.132595,-73.882650,03/22/2022,149273,2022-03-22 00:31:22,,,,11/20/2019,J1772
ELEC,OLD STONEHOUSE GUEST PARKING,21 Hathorn Rd,,Warwick,NY,10990,,888-758-4389,E,,Public,Thu 4:30pm - 11:00pm; Fri 12:00pm - 12:00am; Sat 12:00pm - 12:00am; Sun 7:00am - 9:00pm,,,2,,,ChargePoint Network,http://www.chargepoint.com/,GPS,41.245842,-74.370384,03/22/2022,193536,2022-03-22 00:31:22,,,,08/06/2021,J1772
ELEC,Holiday Inn Utica,1777 Burnstone Rd,,New Hartford,NY,13143,,866-816-7584,E,,Public - Credit card at all times,24 hours daily,A D Debit M V,,2,,,EV Connect,http://evconnect.com/,GPS,43.094117,-75.284857,11/04/2021,195713,2021-12-06 18:36:15,P,,,09/03/2021,J1772
ELEC,PANYNJ LGA WEST 1,LGA West Garage LaGuardia Airport,,Flushing,NY,11371,,888-758-4389,E,,Public,24 hours daily,,,1,,,ChargePoint Network,http://www.chargepoint.com/,GPS,40.773116,-73.874977,03/22/2022,162285,2022-03-22 00:31:22,,,,06/12/2020,J1772
ELEC,5TH AVE 5TH AVE TROY,1713 5th Ave,,Troy,NY,12180,,888-758-4389,E,,Public,24 hours daily,,,2,,,ChargePoint Network,http://www.chargepoint.com/,GPS,42.730522,-73.688060,03/22/2022,162308,2022-03-22 00:31:22,,,,06/12/2020,J1772
ELEC,Green Acres Commons - Tesla Supercharger,"2034 Green Acres Mall, Sunrise Highway",,Valley Stream,NY,11581,,877-798-3752,E,,Public,24 hours daily; for Tesla use only,,,,16,,Tesla,https://www.tesla.com/supercharger,200-9,40.664127,-73.725100,10/11/2021,102344,2021-11-04 18:37:47,P,,,07/23/2018,TESLA
ELEC,Icon Parking - One Lincoln Plaza,20 W 64th Street,Located at B1,New York,NY,10023,,888-998-2546,E,,Public,MON: 24 hours | TUE: 24 hours | WED: 24 hours | THU: 24 hours | FRI: 24 hours | SAT: 24 hours | SUN: 24 hours,,,1,,,Blink Network,http://www.blinkcharging.com/,GPS,40.771626,-73.981032,03/21/2022,164681,2022-03-21 22:55:12,,,,08/01/2020,J1772
ELEC,PRIMA LOFTS LL ALB LOFTS 1.1,1373 Broadway,,Menands,NY,12204,,888-758-4389,E,,Public,24 hours daily,,,2,,,ChargePoint Network,http://www.chargepoint.com/,GPS,42.676205,-73.733440,03/22/2022,175102,2022-03-22 00:31:22,,,,01/27/2021,J1772
ELEC,SLSDC - Administration Building,180 Andrews St,,Massena,NY,13662,,,E,,Public,24 hours daily; Drivers must bring their own J1772 cordset for Level 1 charging,,1,,,,Non-Networked,,GPS,44.929771,-74.902773,02/22/2021,184631,2022-02-10 21:00:18,FG,17.0,Department of Transportation,01/15/2021,NEMA515
ELEC,ImPark Underhill Garage - Tesla Destination,105 Underhill Ave,,Brooklyn,NY,11238,,877-909-6199  877-798-3752,E,,Public,24 hours daily; pay lot; see front desk for access,,,4,,,Tesla Destination,https://www.tesla.com/destination-charging,200-9,40.677460,-73.965421,11/03/2020,122469,2021-03-11 23:22:17,P,,,03/01/2019,TESLA
ELEC,Icon Parking 515 E 72nd Street - Tesla Destination,515  E 72nd St,,New York,NY,10021,,212-249-8196  877-798-3752,E,,Public,24 hours daily; pay lot; see valet for access,,,3,,,Tesla Destination,https://www.tesla.com/destination-charging,200-9,40.766857,-73.952647,11/03/2020,150660,2021-03-11 23:22:17,P,,,09/30/2019,J1772 TESLA
ELEC,Staples Plaza,3379 Crompond Rd,,Yorktown Heights,NY,10598,,877-455-3833,E,,Public,24 hours daily,,,,1,,eVgo Network,https://www.evgo.com/,GPS,41.289986,-73.830730,03/22/2022,198867,2022-03-22 01:26:59,,,,10/25/2021,CHADEMO J1772COMBO
ELEC,SAVARINO COMPAN BRL 6,BRL Parking Lot 4th from building 1 South Str,,Buffalo,NY,14204,,888-758-4389,E,,Public,24 hours daily,,,2,,,ChargePoint Network,http://www.chargepoint.com/,GPS,42.863679,-78.868118,03/22/2022,164153,2022-03-22 00:31:22,,,,07/11/2020,J1772
ELEC,The Shops at Riverhead,1762 Old Country Rd,,Riverhead,NY,11901,,877-455-3833,E,,Public,24 hours daily,,,,2,,eVgo Network,https://www.evgo.com/,GPS,40.927889,-72.706158,03/22/2022,199014,2022-03-22 01:26:59,,,,10/25/2021,CHADEMO J1772COMBO
ELEC,NORTHLAND 1,683 Northland Ave,,Buffalo,NY,14211,,888-758-4389,E,,Public,24 hours daily,,,2,,,ChargePoint Network,http://www.chargepoint.com/,GPS,42.917820,-78.834370,03/22/2022,180126,2022-03-22 00:31:22,,,,01/27/2021,J1772
ELEC,DEMCO TRUHILTONCHARGE,3512 NY-434,,Vestal,NY,13850,,888-758-4389,E,,Public,24 hours daily,,,2,,,ChargePoint Network,http://www.chargepoint.com/,GPS,42.096362,-75.987614,03/22/2022,169881,2022-03-22 00:31:22,,,,12/03/2020,J1772
ELEC,SUNY NEW PALTZ STATION 2,Service building,,New Paltz,NY,12561,,888-758-4389,E,,Public,24 hours daily,,,2,,,ChargePoint Network,http://www.chargepoint.com/,GPS,41.736732,-74.084307,03/22/2022,123392,2022-03-22 00:31:22,,,,05/29/2019,J1772
ELEC,Saab Sensis,85 Collamer Crossings,,East Syracuse,NY,13057,,,E,,Public,24 hours daily,,,10,,,EV Connect,http://evconnect.com/,200-8,43.102147,-76.049212,04/08/2020,155103,2021-03-11 23:22:17,P,,,02/01/2020,J1772
ELEC,GMC 111 E 82nd St - Tesla Destination,111 E 82nd St,,New York,NY,10065,,212-288-9645  877-798-3752,E,,Public,24 hours daily; see valet for access,,,3,,,Tesla Destination,https://www.tesla.com/destination-charging,200-8,40.777545,-73.958471,11/03/2020,115000,2021-03-11 23:22:17,P,,,12/15/2016,J1772 TESLA
ELEC,Henderson Ford,810 E Ridge Rd,Located in front of and on the west side of the building,Webster,NY,14580,,585-787-1700,E,,Public - Call ahead,Dealership business hours,,,2,,,Non-Networked,,200-9,43.205714,-77.476722,06/07/2021,53975,2022-02-10 19:42:29,P,,,09/01/2013,J1772
ELEC,ROCHESTER NY EAST END -GW 2,475 East Ave,,Rochester,NY,14604,,888-758-4389,E,,Public,24 hours daily,,,2,,,ChargePoint Network,http://www.chargepoint.com/,GPS,43.157074,-77.599958,03/22/2022,181473,2022-03-22 00:31:22,,,,01/27/2021,J1772
ELEC,Mather Hospital,75 North County Rd,,Port Jefferson,NY,11777,,866-816-7584,E,,Public,24 hours daily,,,4,,,EV Connect,http://evconnect.com/,GPS,40.939610,-73.053579,03/15/2021,185627,2021-12-06 18:36:15,P,,,03/01/2021,J1772
ELEC,Town of Dickinson,531 Old Front St,,Binghamton,NY,13905,,866-816-7584,E,,Public,24 hours daily,,,2,,,EV Connect,http://evconnect.com/,200-9,42.119780,-75.912473,04/08/2020,94828,2021-03-11 23:22:17,LG,,,07/12/2017,J1772
ELEC,TOWN OF BOLTON TOWN OF BOLTON1,5 Cross Street Town of Bolton,,Bolton Landing,NY,12814,,888-758-4389,E,,Public,24 hours daily,,,2,,,ChargePoint Network,http://www.chargepoint.com/,GPS,43.557602,-73.657839,03/22/2022,165304,2022-03-22 00:31:22,,,,08/19/2020,J1772
ELEC,SWL SARANAC 1.1,234 Lake Flower Ave,,Saranac Lake,NY,12983,,888-758-4389,E,,Public,24 hours daily,,,2,,,ChargePoint Network,http://www.chargepoint.com/,GPS,44.322773,-74.123146,03/22/2022,181789,2022-03-22 00:31:22,,,,01/27/2021,J1772
ELEC,TH 001,1 Town Hall Rd,,Lake Katrine,NY,12449,,888-758-4389,E,,Public,24 hours daily,,,2,,,ChargePoint Network,http://www.chargepoint.com/,GPS,41.976902,-74.002655,03/22/2022,206836,2022-03-22 00:31:22,,,,02/22/2022,J1772
ELEC,QuickChek - Tesla Supercharger,1147 Sunrise Highway,,Copiague,NY,11726,,877-798-3752,E,,Public,24 hours daily; for Tesla use only,,,,8,,Tesla,https://www.tesla.com/supercharger,GPS,40.688720,-73.406165,10/11/2021,154208,2021-11-04 18:37:47,P,,,02/28/2020,TESLA
ELEC,Comfort Inn - Tesla Destination,66 W Pulteney St,,Corning,NY,14830,,607-962-1515  877-798-3752,E,,Public,24 hours daily; for customer use only; see front desk for access,,,3,,,Tesla Destination,https://www.tesla.com/destination-charging,200-9,42.150849,-77.064055,09/30/2019,114927,2021-03-11 23:22:17,P,,,11/01/2018,J1772 TESLA
ELEC,BURNS MGT SGA 2,21 Seward St,,Saratoga Springs,NY,12866,,888-758-4389,E,,Public,24 hours daily,,,2,,,ChargePoint Network,http://www.chargepoint.com/,GPS,43.087484,-73.795458,03/22/2022,162127,2022-03-22 00:31:22,,,,06/12/2020,J1772
ELEC,CASE CENTER LOT PALAMOUNTAIN,Perimeter Rd,,Saratoga Springs,NY,12866,,888-758-4389,E,,Public,24 hours daily,,,2,,,ChargePoint Network,http://www.chargepoint.com/,GPS,43.098201,-73.783743,03/22/2022,123549,2022-03-22 00:31:22,,,,06/05/2019,J1772
ELEC,Champion Parking E 16th Street - Tesla Destination,101  E 16th St,,New York,NY,10003,,212-358-1476  877-798-3752,E,,Public,24 hours daily; see valet for access,,,3,,,Tesla Destination,https://www.tesla.com/destination-charging,200-8,40.736116,-73.989322,11/03/2020,114991,2021-03-11 23:22:17,P,,,09/01/2017,J1772 TESLA
ELEC,La Belle Vie Bed & Breakfast - Tesla Destination,208 Main St,,Penn Yan,NY,14527,,315-694-7273  877-798-3752,E,,Public,24 hours daily; see front desk for access,,,2,,,Tesla Destination,https://www.tesla.com/destination-charging,200-9,42.663782,-77.056454,11/03/2020,115210,2021-03-11 23:22:17,P,,,01/01/2016,TESLA
ELEC,Icon 299 Peal Street Seaport Parking - Tesla Destination,238 Pearl St,,New York,NY,10069,,212-227-2215  877-798-3752,E,,Public,24 hours daily; see valet for access,,,3,,,Tesla Destination,https://www.tesla.com/destination-charging,200-8,40.707360,-74.004989,11/03/2020,115063,2021-03-11 23:22:17,P,,,08/15/2016,J1772 TESLA
ELEC,Glennpeter Jewelers,1505 Rt-9,,Clifton Park,NY,12065,,518-691-3119,E,,Public,24 hours daily,,,4,,,LIVINGSTON,https://www.solution.energy/evse/,GPS,42.838795,-73.742662,07/14/2021,189516,2022-02-10 19:42:29,P,,,09/25/2020,J1772
ELEC,TOWN GLENVILLE IM PARK EV3,Indian Meadows Park 1 Jason Morris Way,,Glenville,NY,12302,,888-758-4389,E,,Public,24 hours daily,,,2,,,ChargePoint Network,http://www.chargepoint.com/,GPS,42.887598,-73.936759,03/22/2022,175630,2022-03-22 00:31:22,,,,01/27/2021,J1772
ELEC,ADELPHI UNIV STATION 05,1 South Ave,,Garden City,NY,11530,,888-758-4389,E,,Public,24 hours daily,,,2,,,ChargePoint Network,http://www.chargepoint.com/,GPS,40.719629,-73.650059,03/22/2022,171555,2022-03-22 00:31:22,,,,01/27/2021,J1772
ELEC,VIDA BLD_E VIDA A LOT,2 Adventure Place,,Rochester,NY,14607,,888-758-4389,E,,Public,24 hours daily,,,2,,,ChargePoint Network,http://www.chargepoint.com/,GPS,43.153142,-77.598758,03/22/2022,207623,2022-03-22 00:31:22,,,,03/04/2022,J1772
ELEC,Marshall & Sons,701 Montauk Hwy,,Montauk,NY,11954,,866-816-7584,E,,Public - Credit card at all times,24 hours daily,A D Debit M V,,4,,,EV Connect,http://evconnect.com/,GPS,41.033512,-71.946540,07/13/2020,163945,2021-03-11 23:22:17,P,,,06/26/2020,J1772
ELEC,OUTSIDE SHOP02,175 Freemans Bridge Rd,,Schenectady,NY,12302,,888-758-4389,E,,Public,24 hours daily,,,1,,,ChargePoint Network,http://www.chargepoint.com/,GPS,42.845987,-73.943170,03/22/2022,180110,2022-03-22 00:31:22,,,,01/27/2021,J1772
ELEC,Champion Parking 90 LLC - Tesla Destination,60 E 90th St,,New York,NY,10028,,212-828-8282  877-798-3752,E,,Public,24 hours daily; see valet for access,,,3,,,Tesla Destination,https://www.tesla.com/destination-charging,GPS,40.783085,-73.956304,11/03/2020,115167,2021-03-11 23:22:17,P,,,03/01/2017,J1772 TESLA
ELEC,GGMC 91 E 9th Street - Tesla Destination,91 East 9th Street,,New York,NY,10003,,877-798-3752  877-798-3752,E,,Public,24 hours daily; for customer use only; see front desk for access,,,3,,,Tesla Destination,https://www.tesla.com/destination-charging,200-8,40.730990,-73.990963,11/03/2020,168794,2021-03-11 23:22:17,P,,,11/03/2020,J1772 TESLA
ELEC,New York State Department of Transportation - Taste NY Market,4640 Taconic State Pkwy N,,Lagrangeville,NY,12540,,845-849-0247,E,,Public,Store business hours,,,2,,,EV Connect,http://evconnect.com/,GPS,41.656857,-73.789422,09/10/2021,94856,2021-12-06 18:36:15,P,,,03/25/2020,J1772
ELEC,Saratoga Auto Museum - Tesla Destination,110 Ave of the Pines,,Saratoga Springs,NY,12866,,518-587-1935  877-798-3752,E,,Public,24 hours daily; see front desk for access,,,2,,,Tesla Destination,https://www.tesla.com/destination-charging,200-8,43.057371,-73.804293,11/03/2020,115234,2021-03-11 23:22:17,P,,,10/01/2012,TESLA
ELEC,NATIONAL GRID KOHLS HUDSON,488 Fairview Ave,,Hudson,NY,12534,,888-758-4389,E,,Public,24 hours daily,,,2,,,ChargePoint Network,http://www.chargepoint.com/,GPS,42.281075,-73.751372,03/22/2022,162177,2022-03-22 00:31:22,,,,06/12/2020,J1772
ELEC,Saratoga Auto Museum,110 Avenue of the Pines,,Saratoga Springs,NY,12866,,518-587-1935,E,,Public,24 hours daily,,,1,,,Non-Networked,,GPS,43.057348,-73.804726,01/14/2021,72698,2022-03-09 22:08:13,P,,,01/25/2016,J1772
ELEC,GGMC Parking 51-53 E 76th St Carlyle Hotel - Tesla Destination,53  E 76th St,,New York,NY,10021,,212-570-7182  877-798-3752,E,,Public,24 hours daily; see valet for access,,,2,,,Tesla Destination,https://www.tesla.com/destination-charging,200-8,40.774265,-73.962780,11/03/2020,115150,2021-03-11 23:22:17,P,,,01/01/2016,J1772 TESLA
ELEC,ULYSSES TOWN ULYSSES,10 Elm St,,Trumansburg,NY,14886,,888-758-4389,E,,Public,24 hours daily,,,2,,,ChargePoint Network,http://www.chargepoint.com/,GPS,42.541251,-76.661435,03/22/2022,162327,2022-03-22 00:31:22,,,,06/12/2020,J1772
ELEC,One Blue Slip-Greenpoint - Tesla Destination,1 Blue Slip,,Brooklyn,NY,11222,,718-713-8733  877-798-3752,E,,Public,24 hours daily; pay lot; see valet for access,,,5,,,Tesla Destination,https://www.tesla.com/destination-charging,GPS,40.736224,-73.959356,11/03/2020,150540,2021-03-11 23:22:17,P,,,09/30/2019,J1772 TESLA
ELEC,One Seneca Tower,1 HSBC Center,,Buffalo,NY,14202,,866-816-7584,E,,Public,24 hours daily,,,2,,,EV Connect,http://evconnect.com/,GPS,42.879939,-78.876219,04/08/2020,123259,2021-03-11 23:22:17,P,,,04/01/2019,J1772
ELEC,HGI TROY HILTON TROY 1.1,243 Hoosick St,,Troy,NY,12180,,888-758-4389,E,,Public,24 hours daily,,,2,,,ChargePoint Network,http://www.chargepoint.com/,GPS,42.739590,-73.670850,03/22/2022,154778,2022-03-22 00:31:22,,,,03/27/2020,J1772
ELEC,DOUBLETREEHOTEL DC FAST CHARGER,455 S Broadway,,Tarrytown,NY,10591,,888-758-4389,E,,Public,24 hours daily,,,,1,,ChargePoint Network,http://www.chargepoint.com/,GPS,41.061411,-73.862829,03/22/2022,162399,2022-03-22 00:31:22,,,,06/12/2020,J1772COMBO
ELEC,GAULT BMW STATION 01,2311 North St,,Endicott,NY,13760,,888-758-4389,E,,Public,24 hours daily,,,2,,,ChargePoint Network,http://www.chargepoint.com/,GPS,42.107059,-76.035088,03/22/2022,162435,2022-03-22 00:31:22,,,,06/12/2020,J1772
ELEC,LARKIN726RRAMPP LARKIN 2,726 Exchange St,,Buffalo,NY,14210,,888-758-4389,E,,Public,Mon 5:00pm - 10:00pm; Tue 5:00pm - 10:00pm; Wed 5:00pm - 10:00pm; Thu 5:00pm - 10:00pm; Fri 5:00pm - 10:00pm; Sat 8:00am - 10:00pm; Sun 8:00am - 10:00pm,,,2,,,ChargePoint Network,http://www.chargepoint.com/,GPS,42.874889,-78.849833,03/22/2022,182984,2022-03-22 00:31:22,,,,01/27/2021,J1772
ELEC,Rapidpark 205 W 101st Street - Tesla Destination,205 W 101st Street,,New York,NY,10025,,877-798-3752  877-798-3752,E,,Public,24 hours daily; for customer use only; see front desk for access,,,3,,,Tesla Destination,https://www.tesla.com/destination-charging,200-9,40.797676,-73.968479,11/03/2020,169060,2021-03-11 23:22:17,P,,,11/03/2020,J1772 TESLA
ELEC,Lake Pleasant Lodge - Tesla Destination,2839 State Rte 30,,Speculator,NY,12164,,518-548-5253  877-798-3752,E,,Public,24 hours daily; for customer use only; see front desk for access,,,2,,,Tesla Destination,https://www.tesla.com/destination-charging,200-8,43.495979,-74.360195,11/03/2020,150725,2021-03-11 23:22:17,P,,,09/30/2019,TESLA
ELEC,NYC FLEET DPRMBLOT8_2_L3,920 Father Capodanno Blvd,,Midland Beach,NY,10305,,888-758-4389,E,,Public,24 hours daily,,,,1,,ChargePoint Network,http://www.chargepoint.com/,GPS,40.572636,-74.086160,03/22/2022,171477,2022-03-22 00:31:22,,,,01/27/2021,CHADEMO J1772COMBO
ELEC,CHEEKTOWAGA CHEEKTOWAGA,211 Ridge Park Ave,,Cheektowaga,NY,14225,,888-758-4389,E,,Public,24 hours daily,,,2,,,ChargePoint Network,http://www.chargepoint.com/,GPS,42.913478,-78.789878,03/22/2022,162313,2022-03-22 00:31:22,,,,06/12/2020,J1772
ELEC,Schuyler County,323 Owego St,,Montour Falls,NY,14865,,866-816-7584,E,,Public - Credit card at all times,24 hours daily; Also accepts PayPal and Apple Pay,A D M V,,4,,,EV Connect,http://evconnect.com/,GPS,42.340492,-76.840909,12/03/2020,168435,2021-03-11 23:22:17,LG,,,09/01/2020,J1772
ELEC,CCE TOMPKINS STATION ONE,615 Willow Ave,,Ithaca,NY,14850,,888-758-4389,E,,Public,24 hours daily,,,2,,,ChargePoint Network,http://www.chargepoint.com/,GPS,42.450688,-76.503433,03/22/2022,165558,2022-03-22 00:31:22,,,,08/27/2020,J1772
ELEC,Culinary Arts Center at Auburn Watson - Tesla Destination,3295 Walden Ave,,Depew,NY,14043,,716-876-8000  877-798-3752,E,,Public,24 hours daily,,,2,,,Tesla Destination,https://www.tesla.com/destination-charging,200-9,42.911728,-78.694835,11/03/2020,114933,2021-03-11 23:22:17,P,,,11/01/2016,J1772 TESLA
ELEC,River Spring Lodge - Tesla Destination,1961 Church Rd,,Darien Center,NY,14040,,585-708-4212  877-798-3752,E,,Public - Call ahead,24 hours daily; for customer use only,,,1,,,Tesla Destination,https://www.tesla.com/destination-charging,200-9,42.862450,-78.344960,11/03/2020,114932,2021-03-11 23:22:17,P,,,03/01/2017,TESLA
ELEC,AAA Car Care Plus,8120 Main St,,Clarence,NY,14221,,716-932-3900  855-443-3873,E,,Public,24 hours daily,,,1,,,Non-Networked,,GPS,42.965851,-78.692780,06/09/2020,42993,2021-03-11 23:22:17,P,,,12/17/2018,J1772
ELEC,THERMAL QUICK AG EV4,11 sitterly road,,Clifton Park,NY,12065,,888-758-4389,E,,Public,24 hours daily,,,2,,,ChargePoint Network,http://www.chargepoint.com/,GPS,42.850800,-73.757274,03/22/2022,168029,2022-03-22 00:31:22,,,,10/30/2020,J1772
ELEC,COLE GROUP COLONIE EAST 3,98 Saratoga Ct,,Latham,NY,12110,,888-758-4389,E,,Public,24 hours daily,,,2,,,ChargePoint Network,http://www.chargepoint.com/,GPS,42.746113,-73.770676,03/22/2022,154059,2022-03-22 00:31:22,,,,02/27/2020,J1772
ELEC,ESSEX FARMS EVSE2,2496 NY-22,,Essex,NY,12936,,888-758-4389,E,,Public,24 hours daily,,,2,,,ChargePoint Network,http://www.chargepoint.com/,GPS,44.308086,-73.374580,03/22/2022,196293,2022-03-22 00:31:22,,,,09/24/2021,J1772
ELEC,WHITE PLAINS WP CT4K-2 SALES,262 E Main St,,Elmsford,NY,10523,,888-758-4389,E,,Public,24 hours daily,,,2,,,ChargePoint Network,http://www.chargepoint.com/,GPS,41.048088,-73.808500,03/22/2022,199474,2022-03-22 00:31:22,,,,10/30/2021,J1772
ELEC,"Town of East Hampton/Montauk, NY",70 South Euclid Ave,,Montauk,NY,11954,,833-632-2778,E,,Public,24 hours daily,,,,4,,Electrify America,https://www.electrifyamerica.com/,GPS,41.035911,-71.943488,03/22/2022,170247,2022-03-22 01:32:58,,,,12/17/2020,CHADEMO J1772COMBO
ELEC,JATC LU 363 LU 363 1,67 Commerce Dr S,,Harriman,NY,10926,,888-758-4389,E,,Public,24 hours daily,,,2,,,ChargePoint Network,http://www.chargepoint.com/,GPS,41.309697,-74.133095,03/22/2022,162182,2022-03-22 00:31:22,,,,06/12/2020,J1772
ELEC,Icon Parking 301 E 57 Street - Tesla Destination,301 E 57th St,,New York,NY,10022,,212-755-6223  877-798-3752,E,,Public,24 hours daily; see valet for access,,,3,,,Tesla Destination,https://www.tesla.com/destination-charging,200-8,40.759484,-73.965206,11/03/2020,115086,2021-03-11 23:22:17,P,,,05/01/2016,J1772 TESLA
ELEC,MAIN 2ND FLOOR 2 NGW,1133 Route 414 Parking Garage,,Waterloo,NY,13165,,888-758-4389,E,,Public,24 hours daily,,,2,,,ChargePoint Network,http://www.chargepoint.com/,GPS,42.969166,-76.845266,03/22/2022,180149,2022-03-22 00:31:22,,,,01/27/2021,J1772
ELEC,MPG 340 East 93rd - Tesla Destination,340 E 93rd St,,New York,NY,10128,,212-490-3460  877-798-3752,E,,Public,24 hours daily; see valet for access,,,3,,,Tesla Destination,https://www.tesla.com/destination-charging,200-8,40.781375,-73.946721,11/03/2020,115103,2021-03-11 23:22:17,P,,,11/01/2018,J1772 TESLA
ELEC,Buffalo Niagara International Airport,4200 Genesee St,"Located on Level 1, section F-2 in the Daily/Hourly Parking Garage",Buffalo,NY,14225,,716-630-6191,E,,Public,24 hours daily,,,3,,,Non-Networked,,GPS,42.933441,-78.731633,05/06/2021,63479,2022-02-10 19:42:29,P,,,12/31/2014,J1772
ELEC,FUCCILLOHYUNDAI CPF50 #3,1910 Alvin Rd,,Grand Island,NY,14072,,888-758-4389,E,,Public,24 hours daily,,,1,,,ChargePoint Network,http://www.chargepoint.com/,GPS,43.011574,-78.968556,03/22/2022,202145,2022-03-22 00:31:22,,,,12/08/2021,J1772
ELEC,TCR TOWNE EV STATION 3,12 California  ave,,Albany,NY,12205,,888-758-4389,E,,Public,24 hours daily,,,2,,,ChargePoint Network,http://www.chargepoint.com/,GPS,42.704114,-73.813740,03/22/2022,169945,2022-03-22 00:31:22,,,,12/05/2020,J1772
ELEC,RRH NEWARK WEST GW3,1200 Driving Park Ave,,Newark,NY,14513,,888-758-4389,E,,Public,24 hours daily,,,2,,,ChargePoint Network,http://www.chargepoint.com/,GPS,43.060887,-77.104487,03/22/2022,174418,2022-03-22 00:31:22,,,,01/27/2021,J1772
ELEC,SRYMCASSB MALTA 1.4,8-10 Medical Park Dr,,Ballston Spa,NY,12020,,888-758-4389,E,,Public,24 hours daily,,,2,,,ChargePoint Network,http://www.chargepoint.com/,GPS,42.975723,-73.806080,03/22/2022,182288,2022-03-22 00:31:22,,,,01/27/2021,J1772
ELEC,Holiday Inn Express & Suites Saugerties - Hudson Valley,9 Old Rte 32,,Saugerties,NY,12477,,845-247-8800,E,,Public,24 hours daily,,,4,,,EV Connect,http://evconnect.com/,GPS,42.087996,-73.975551,06/07/2021,154659,2021-12-06 18:36:15,P,,,03/20/2020,J1772
ELEC,Black Brook Town Offices,18 N Main St,,Au Sable Forks,NY,12912,,866-816-7584,E,,Public,24 hours daily,,,2,,,EV Connect,http://evconnect.com/,GPS,44.442528,-73.674603,04/08/2020,123072,2021-03-11 23:22:17,P,,,04/01/2019,J1772
ELEC,NYSE Thruway - Exit 49 - Depew,6623 Transit Rd,,Williamsville,NY,14221,,866-816-7584,E,,Public,24 hours daily,,,2,,,EV Connect,http://evconnect.com/,GPS,42.946406,-78.697270,05/06/2021,187175,2021-12-06 18:36:15,P,,,03/22/2021,J1772
ELEC,BURNS MGT OXFORD 3,6203 Johnston Rd,,Albany,NY,12203,,888-758-4389,E,,Public,24 hours daily,,,2,,,ChargePoint Network,http://www.chargepoint.com/,GPS,42.685360,-73.870690,03/22/2022,119018,2022-03-22 00:31:22,,,,03/08/2019,J1772
ELEC,799 SENECA STATION 7,799 Seneca St,,Buffalo,NY,14210,,888-758-4389,E,,Public,Mon 5:00pm - 10:00pm; Tue 5:00pm - 10:00pm; Wed 5:00pm - 10:00pm; Thu 5:00pm - 10:00pm; Fri 5:00pm - 10:00pm; Sat 8:00am - 10:00pm; Sun 8:00am - 10:00pm,,,1,,,ChargePoint Network,http://www.chargepoint.com/,GPS,42.875098,-78.847577,03/22/2022,191247,2022-03-22 00:31:22,,,,06/19/2021,J1772
ELEC,ALBANY COUNTY RAIL TRAIL,839 Kenwood Ave Rail Trail,,Slingerlands,NY,12159,,888-758-4389,E,,Public,24 hours daily,,,2,,,ChargePoint Network,http://www.chargepoint.com/,GPS,42.629269,-73.863661,03/22/2022,162134,2022-03-22 00:31:22,,,,06/12/2020,J1772
ELEC,CITY AMSTERDAM BRIDGE ST EV 3,55 Bridge St Bridge Street Parking Lot,,Amsterdam,NY,12010,,888-758-4389,E,,Public,24 hours daily,,,2,,,ChargePoint Network,http://www.chargepoint.com/,GPS,42.934486,-74.197391,03/22/2022,181934,2022-03-22 00:31:22,,,,01/27/2021,J1772
ELEC,RRH CARTER 2FL NGW2,1415 Portland Ave,,Rochester,NY,14621,,888-758-4389,E,,Public,24 hours daily,,,2,,,ChargePoint Network,http://www.chargepoint.com/,GPS,43.191585,-77.588747,03/22/2022,174455,2022-03-22 00:31:22,,,,01/27/2021,J1772
ELEC,STONY BROOK UNV AUTOMOTIVE,Service Rd,,Stony Brook,NY,11790,,888-758-4389,E,,Public,24 hours daily,,,2,,,ChargePoint Network,http://www.chargepoint.com/,GPS,40.915315,-73.129239,03/22/2022,201582,2022-03-22 00:31:22,,,,11/25/2021,J1772
ELEC,City Parking Garment One Garage - Tesla Destination,155 E 34th St,,New York,NY,10016,,212-683-2928  877-798-3752,E,,Public,24 hours daily; for customer use only; see valet for access,,,3,,,Tesla Destination,https://www.tesla.com/destination-charging,200-9,40.746200,-73.978528,11/03/2020,115023,2021-03-11 23:22:17,P,,,09/01/2017,J1772 TESLA
ELEC,RRH PORTLAND G1,Rochester General Hospital Dr,,Rochester,NY,14621,,888-758-4389,E,,Public,24 hours daily,,,2,,,ChargePoint Network,http://www.chargepoint.com/,GPS,43.193340,-77.585720,03/22/2022,156615,2022-03-22 00:31:22,,,,05/22/2020,J1772
ELEC,Jamestown Park and Ride,2870 N Main St Extension,,Jamestown,NY,14701,,866-816-7584,E,,Public,24 hours daily,,,2,,,EV Connect,http://evconnect.com/,GPS,42.122334,-79.240661,06/09/2020,123095,2021-03-11 23:22:17,P,,,04/01/2019,J1772
ELEC,NATIONAL GRID CHILIS ALBANY,60 wolf rd,,Colonie,NY,12205,,888-758-4389,E,,Public,24 hours daily,,,2,,,ChargePoint Network,http://www.chargepoint.com/,GPS,42.714731,-73.814118,03/22/2022,162202,2022-03-22 00:31:22,,,,06/12/2020,J1772
ELEC,5935 Broadway,5935 Broadway,,Bronx,NY,10463,,888-356-8911,E,,Public,24 hours daily,,,4,,,FLO,https://flo.ca/,GPS,40.888461,-73.899119,03/22/2022,191505,2022-03-22 01:47:29,,,,06/25/2021,J1772
ELEC,LaGrangeville Tops Market,16 John J Wagner Way,,LaGrangeville,NY,12540,,855-900-7584,E,,Public,24 hours daily,,,,4,,Greenlots,http://greenlots.com/,GPS,41.667907,-73.795294,03/22/2022,197115,2022-03-22 01:30:07,,,,10/05/2021,CHADEMO J1772COMBO
ELEC,SUNY BUFFALO PARKER 7,185 Hayes Rd,,Buffalo,NY,14214,,888-758-4389,E,,Public,24 hours daily,,,2,,,ChargePoint Network,http://www.chargepoint.com/,GPS,42.951165,-78.822439,03/22/2022,182224,2022-03-22 00:31:22,,,,01/27/2021,J1772
ELEC,The Lodge at Grist Iron Brewing Co.,4880 NY-414,,Burdett,NY,14818,,697-882-2739,E,,Public,24 hours daily,,,1,,,Non-Networked,,GPS,42.469877,-76.864653,06/09/2020,157970,2021-03-11 23:22:17,P,,,05/15/2020,J1772
ELEC,59 Allen Street - Tesla Supercharger,59 Allen Street,,New York,NY,10002,,877-798-3752,E,,Public,24 hours daily; for Tesla use only,,,,4,,Tesla,https://www.tesla.com/supercharger,GPS,40.717153,-73.991869,10/11/2021,116808,2021-11-04 18:37:47,P,,,12/01/2018,TESLA
ELEC,RRH UNITY POB 3,1561 Long Pond Rd,,Rochester,NY,14626,,888-758-4389,E,,Public,24 hours daily,,,2,,,ChargePoint Network,http://www.chargepoint.com/,GPS,43.190998,-77.703970,03/22/2022,174810,2022-03-22 00:31:22,,,,01/27/2021,J1772
ELEC,GARBER ROC SHOP 01,3925 W Henrietta Rd,,Rochester,NY,14623,,888-758-4389,E,,Public,24 hours daily,,,1,,,ChargePoint Network,http://www.chargepoint.com/,GPS,43.074708,-77.644885,03/22/2022,180099,2022-03-22 00:31:22,,,,01/27/2021,J1772
ELEC,Shults Nissan Subaru,311 Fluvanna Avenue,,Jamestown,NY,14701,,888-998-2546,E,,Public,MON: 24 hours | TUE: 24 hours | WED: 24 hours | THU: 24 hours | FRI: 24 hours | SAT: 24 hours | SUN: 24 hours,,,2,,,Blink Network,http://www.blinkcharging.com/,GPS,42.115844,-79.253222,03/21/2022,191308,2022-03-21 22:55:12,,,,06/22/2021,J1772
ELEC,Riverhead Town Center - Tesla Supercharger,1761 Old Country Road,,Riverhead,NY,11901,,877-798-3752,E,,Public,24 hours daily; for Tesla use only,,,,8,,Tesla,https://www.tesla.com/supercharger,GPS,40.923424,-72.703538,10/11/2021,170430,2021-11-04 18:37:47,P,,,12/14/2020,TESLA
ELEC,NATIONAL GRID GLENS FALLS,126 South St,,Glens Falls,NY,12801,,888-758-4389,E,,Public,24 hours daily,,,2,,,ChargePoint Network,http://www.chargepoint.com/,GPS,43.305308,-73.649371,03/22/2022,162218,2022-03-22 00:31:22,,,,06/12/2020,J1772
ELEC,MTP Parking 363 Bond Street - Tesla Destination,363 Bond St,,Brooklyn,NY,11231,,212-575-5335  877-798-3752,E,,Public,24 hours daily; pay lot; see valet for access,,,4,,,Tesla Destination,https://www.tesla.com/destination-charging,200-9,40.677977,-73.990135,11/03/2020,122476,2021-03-11 23:22:17,P,,,03/01/2019,TESLA
ELEC,MUNICIPAL BLDG TRAIN STATION 1,2 Veterans Plaza,,Croton-on-Hudson,NY,10520,,888-758-4389,E,,Public,24 hours daily,,,2,,,ChargePoint Network,http://www.chargepoint.com/,GPS,41.191670,-73.882470,03/22/2022,143300,2022-03-22 00:31:22,,,,08/15/2019,J1772
ELEC,Stone Ridge Public Library,3700 Main St,,Stone Ridge,NY,12484,,845-687-7023,E,,Public,24 hours daily,,,2,,,Non-Networked,,GPS,41.849440,-74.142960,03/07/2022,167130,2022-03-07 19:49:53,P,,,09/21/2020,J1772
ELEC,Spin Test Facility,1 Research Cir.,,Niskayuna,NY,12309,,800-663-5633,E,,Public,MO: Closed; TU: Closed; WE: Closed; TH: Closed; FR: Closed; SA: Closed; SU: Closed,,,10,,,SemaCharge Network,https://semaconnect.com/,GPS,42.831453,-73.880977,03/22/2022,195162,2022-03-22 00:22:04,,,,09/05/2021,J1772
ELEC,NORTHTOWNHYUN GARAGE,3675 Sheridan Dr,,Buffalo,NY,14226,,888-758-4389,E,,Public,24 hours daily,,,1,,,ChargePoint Network,http://www.chargepoint.com/,GPS,42.978530,-78.795975,03/22/2022,212101,2022-03-22 00:31:22,,,,03/22/2022,J1772
ELEC,RRH CARTER 2 FL NG3,1415 Portland Ave,,Rochester,NY,14621,,888-758-4389,E,,Public,24 hours daily,,,2,,,ChargePoint Network,http://www.chargepoint.com/,GPS,43.191539,-77.588742,03/22/2022,145395,2022-03-22 00:31:22,,,,09/20/2019,J1772
ELEC,4545 Center Blvd-TF Cornerstone LIC - Tesla Destination,4545 Center Blvd,,Long Island City,NY,11109,,718-440-3408  877-798-3752,E,,Public,24 hours daily; pay lot,,,8,,,Tesla Destination,https://www.tesla.com/destination-charging,200-9,40.748121,-73.955990,11/03/2020,150600,2021-03-11 23:22:17,P,,,09/30/2019,TESLA
ELEC,ATRIUM EVCHARGE PARKPLAZA EV1,56 Clifton Country Rd,,Clifton park,NY,12065,,888-758-4389,E,,Public,24 hours daily,,,2,,,ChargePoint Network,http://www.chargepoint.com/,GPS,42.856457,-73.783120,03/22/2022,175313,2022-03-22 00:31:22,,,,01/27/2021,J1772
ELEC,BORO PARK BORO CHARGE 8,4915 10th Ave,,Borough Park,NY,11219,,888-758-4389,E,,Public,24 hours daily,,,2,,,ChargePoint Network,http://www.chargepoint.com/,GPS,40.638536,-73.998640,03/22/2022,206915,2022-03-22 00:31:22,,,,02/23/2022,J1772
ELEC,Point Place Casino - Tesla Destination,450-452 NY-31,,Bridgeport,NY,13030,,315-366-9610  877-798-3752,E,,Public,24 hours daily; for customer use only,,,2,,,Tesla Destination,https://www.tesla.com/destination-charging,200-9,43.154875,-75.965306,11/03/2020,114887,2021-03-11 23:22:17,P,,,11/01/2018,TESLA
ELEC,RIVERHEAD RIVER 2 #1,1947 Old Country Road,,Riverhead,NY,11901,,888-758-4389,E,,Public,24 hours daily,,,2,,,ChargePoint Network,http://www.chargepoint.com/,GPS,40.919684,-72.712696,03/22/2022,180156,2022-03-22 00:31:22,,,,01/27/2021,J1772
ELEC,Quik Park 311 West Broadway LLC - Tesla Destination,311 W Broadway,,New York,NY,10013,,212-925-2539  877-798-3752,E,,Public,24 hours daily; see valet for access,,,2,,,Tesla Destination,https://www.tesla.com/destination-charging,200-9,40.721638,-74.003781,11/03/2020,115091,2021-03-11 23:22:17,P,,,01/01/2016,TESLA
ELEC,NATIONAL GRID TOPS WATERTOWN,22050 US-11,,Watertown,NY,13601,,888-758-4389,E,,Public,24 hours daily,,,2,,,ChargePoint Network,http://www.chargepoint.com/,GPS,43.994810,-75.901730,03/22/2022,162231,2022-03-22 00:31:22,,,,06/12/2020,J1772
ELEC,Cliff's Elbow Too,1085 Franklinville Rd,Located at Main Rd and Aldrich Ln,Laurel,NY,11948,,631-298-3262,E,,Public,24 hours daily,,,1,,,Non-Networked,,200-8,40.968038,-72.562787,06/07/2021,64705,2022-02-10 19:42:29,P,,,08/01/2014,J1772
ELEC,2 WEST AVE 2 WEST 1.3,2 West Ave,,Saratoga Springs,NY,12866,,888-758-4389,E,,Public,24 hours daily,,,2,,,ChargePoint Network,http://www.chargepoint.com/,GPS,43.084282,-73.802980,03/22/2022,182001,2022-03-22 00:31:22,,,,01/27/2021,J1772
ELEC,STONY BROOK UNV ARENA 1,Gymnasium Rd,,Stony Brook,NY,11790,,888-758-4389,E,,Public,24 hours daily,,,2,,,ChargePoint Network,http://www.chargepoint.com/,GPS,40.917249,-73.127280,03/22/2022,162455,2022-03-22 00:31:22,,,,06/12/2020,J1772
ELEC,MUNICIPAL EVSE COOL INSURING,1 Civic Center Plaza,,Glens Falls,NY,12801,,888-758-4389,E,,Public,24 hours daily,,,2,,,ChargePoint Network,http://www.chargepoint.com/,GPS,43.307785,-73.641884,03/22/2022,155384,2022-03-22 00:31:22,,,,04/15/2020,J1772
ELEC,BURNS MGT WHITMORE #1,151 Jefferson St,,Saratoga Springs,NY,12866,,888-758-4389,E,,Public,24 hours daily,,,2,,,ChargePoint Network,http://www.chargepoint.com/,GPS,43.066259,-73.780757,03/22/2022,143586,2022-03-22 00:31:22,,,,08/15/2019,J1772
ELEC,Icon Mercury,350 W 50th Street,Entrance on 350 W 50th St or 335 W 49th St between 8th Ave & 9Ave.,New York,NY,10019,,888-998-2546,E,,Public,MON: 24 hours | TUE: 24 hours | WED: 24 hours | THU: 24 hours | FRI: 24 hours | SAT: 24 hours | SUN: 24 hours,,,1,,,Blink Network,http://www.blinkcharging.com/,GPS,40.763245,-73.988647,03/21/2022,189119,2022-03-21 22:55:12,,,,05/03/2021,J1772
ELEC,ULSTER COUNTY CARR BUILDING,5 Pearl St,,Kingston,NY,12401,,888-758-4389,E,,Public,24 hours daily,,,2,,,ChargePoint Network,http://www.chargepoint.com/,GPS,41.932591,-74.016136,03/22/2022,162352,2022-03-22 00:31:22,,,,06/12/2020,J1772
ELEC,Best Western Rochester Marketplace Inn - Tesla Destination,940 Jefferson Rd,,Rochester,NY,14623,,585-427-2700  877-798-3752,E,,Public,24 hours daily; for customer use only; see front desk for access,,,3,,,Tesla Destination,https://www.tesla.com/destination-charging,200-9,43.087708,-77.613092,11/03/2020,115227,2021-03-11 23:22:17,P,,,11/01/2018,J1772 TESLA
ELEC,BVILLELIBRARY STATION 1,33 E Genesee St,,Baldwinsville,NY,13027,,888-758-4389,E,,Public,24 hours daily,,,2,,,ChargePoint Network,http://www.chargepoint.com/,GPS,43.159201,-76.329447,03/22/2022,194966,2022-03-22 00:31:22,,,,09/02/2021,J1772
ELEC,Albany Parking Authority - Green Hudson Garage,45 Hudson Ave,,Albany,NY,12207,,518-434-8886,E,,Public,24 hours daily,,,5,,,EV Connect,http://evconnect.com/,GPS,42.648002,-73.752290,03/15/2021,123113,2021-12-06 18:36:15,P,,,04/01/2019,J1772
ELEC,MARKET 32 EV TROY VAN EV,79 Vandenburgh ave,,Troy,NY,12180,,888-758-4389,E,,Public,24 hours daily,,,2,,,ChargePoint Network,http://www.chargepoint.com/,GPS,42.697570,-73.690420,03/22/2022,152272,2022-03-22 00:31:22,,,,01/08/2020,J1772
ELEC,Courtyard by Marriott Elmira Horseheads - Tesla Destination,202 Colonial Dr,,Horseheads,NY,14845,,607-795-5900  877-798-3752,E,,Public,24 hours daily; for customer use only; see front desk for access,,,3,,,Tesla Destination,https://www.tesla.com/destination-charging,200-8,42.161972,-76.867318,11/03/2020,114954,2021-03-11 23:22:17,P,,,11/01/2018,J1772 TESLA
ELEC,Village of Union Springs,26 Creamery Rd,,Union Springs,NY,13160,,866-816-7584,E,,Public,24 hours daily; Also accepts Paypal,A D M V,,2,,,EV Connect,http://evconnect.com/,GPS,42.844732,-76.695984,04/08/2020,155077,2021-03-11 23:22:17,LG,,,04/24/2019,J1772
ELEC,"NY DCFC RIVERHEAD, NY",1791 Old Country Rd,,Riverhead,NY,11901,,888-758-4389,E,,Public,24 hours daily,,,,1,,ChargePoint Network,http://www.chargepoint.com/,GPS,40.923448,-72.703416,03/22/2022,170120,2022-03-22 00:31:22,,,,12/12/2020,CHADEMO J1772COMBO
ELEC,HUDSON PRESERVE BLDG 7 #7,12 Beryl Way,,Watervliet,NY,12189,,888-758-4389,E,,Public,24 hours daily,,,2,,,ChargePoint Network,http://www.chargepoint.com/,GPS,42.732693,-73.723590,03/22/2022,143172,2022-03-22 00:31:22,,,,08/15/2019,J1772
ELEC,LPCL STATION 2,30 Lake Placid Club Way,,Lake Placid,NY,12946,,888-758-4389,E,,Public,24 hours daily,,,2,,,ChargePoint Network,http://www.chargepoint.com/,GPS,44.283149,-73.979463,03/22/2022,174120,2022-03-22 00:31:22,,,,01/27/2021,J1772
ELEC,FARMER'S TPKE GARDINER LOT,"Saddleback Ridge Road, GardinerWallkill Valle",,Gardiner,NY,12525,,888-758-4389,E,,Public,Mon 5:00am - 12:00am; Tue 5:00am - 12:00am; Wed 5:00am - 12:00am; Thu 5:00am - 12:00am; Fri 5:00am - 12:00am; Sat 5:00am - 12:00am; Sun 5:00am - 12:00am,,,2,,,ChargePoint Network,http://www.chargepoint.com/,GPS,41.679073,-74.152510,03/22/2022,183363,2022-03-22 00:31:22,,,,01/27/2021,J1772
ELEC,CITY AMSTERDAM P&RB EV 4,201 Locust Ave Park and Recreation Building,,Amsterdam,NY,12010,,888-758-4389,E,,Public,24 hours daily,,,2,,,ChargePoint Network,http://www.chargepoint.com/,GPS,42.948395,-74.179050,03/22/2022,188108,2022-03-22 00:31:22,,,,04/29/2021,J1772
ELEC,Staples Plaza - Tesla Supercharger,3379 Crompond Road,,Yorktown Heights,NY,10589,,877-798-3752,E,,Public,24 hours daily; for Tesla use only,,,,12,,Tesla,https://www.tesla.com/supercharger,200-8,41.290501,-73.832487,10/11/2021,149366,2021-11-04 18:37:47,P,,,09/30/2019,TESLA
ELEC,Central Parking - 109 E 58th Street,109 E 58th Street,,New York,NY,10022,,888-998-2546,E,,Public,MON: 24 hours | TUE: 24 hours | WED: 24 hours | THU: 24 hours | FRI: 24 hours | SAT: 24 hours | SUN: 24 hours,,,1,,,Blink Network,http://www.blinkcharging.com/,GPS,40.762199,-73.969557,03/21/2022,201870,2022-03-21 22:55:12,,,,12/01/2021,J1772
ELEC,DEER PARK TANGER EV 5,152 The Arches Cir,,Deer Park,NY,11729,,888-758-4389,E,,Public,24 hours daily,,,2,,,ChargePoint Network,http://www.chargepoint.com/,GPS,40.762401,-73.305747,03/22/2022,180162,2022-03-22 00:31:22,,,,01/27/2021,J1772
ELEC,2500 POND VIEW STATION 3,2500 Pond View,,Castleton-on-Hudson,NY,12033,,888-758-4389,E,,Public,24 hours daily,,,2,,,ChargePoint Network,http://www.chargepoint.com/,GPS,42.584536,-73.671005,03/22/2022,190872,2022-03-22 00:31:22,,,,06/10/2021,J1772
ELEC,NEW HARTFORD GW-1 1.4,8635 Clinton St,,New Hartford,NY,13413,,888-758-4389,E,,Public,24 hours daily,,,2,,,ChargePoint Network,http://www.chargepoint.com/,GPS,43.092920,-75.316210,03/22/2022,174765,2022-03-22 00:31:22,,,,01/27/2021,J1772
ELEC,AECSOLAR STATION 5 AEC,210 Washington Ave extension,,Albany,NY,12203,,888-758-4389,E,,Public,24 hours daily,,,2,,,ChargePoint Network,http://www.chargepoint.com/,GPS,42.703407,-73.857140,03/22/2022,192639,2022-03-22 00:31:22,,,,07/08/2021,J1772
ELEC,Village of Burdett,4125 NY-79,,Burdett,NY,14818,,866-816-7584,E,,Public,24 hours daily,,,2,,,EV Connect,http://evconnect.com/,GPS,42.421065,-76.838615,06/07/2021,157946,2021-12-06 18:36:15,P,,,05/15/2020,J1772
ELEC,Geneva,83 Seneca Street,,Geneva,NY,14456,,855-900-7584,E,,Public,24 hours daily,,,,2,,Greenlots,http://greenlots.com/,GPS,42.865694,-76.983601,03/22/2022,202699,2022-03-22 01:30:07,,,,12/16/2021,CHADEMO J1772COMBO
ELEC,iPark - Enterprise Parking,315 E 40th Street,Attendant will assist in charging vehicle.  Parking rates apply. Inquire within.,New York,NY,10016,,888-998-2546,E,,Public,MON: 24 hours | TUE: 24 hours | WED: 24 hours | THU: 24 hours | FRI: 24 hours | SAT: 24 hours | SUN: 24 hours,,,1,,,Blink Network,http://www.blinkcharging.com/,GPS,40.748359,-73.972213,03/21/2022,193980,2022-03-21 22:55:12,,,,08/17/2021,J1772
ELEC,SKYVIEW APARTME SKYVIEW ST2,5800 Arlington Ave,,Riverdale,NY,10471,,888-758-4389,E,,Public,24 hours daily,,,2,,,ChargePoint Network,http://www.chargepoint.com/,GPS,40.908654,-73.905897,03/22/2022,171342,2022-03-22 00:31:22,,,,01/16/2021,J1772
ELEC,SRYMCASSB WILTON 1.1,20 Old Gick Rd,,Saratoga Springs,NY,12866,,888-758-4389,E,,Public,24 hours daily,,,2,,,ChargePoint Network,http://www.chargepoint.com/,GPS,43.105774,-73.749300,03/22/2022,183721,2022-03-22 00:31:22,,,,02/02/2021,J1772
ELEC,GLOVERS PARKING STATION 2,85 Mill Rd,,Westhampton Beach,NY,11978,,888-758-4389,E,,Public,24 hours daily,,,2,,,ChargePoint Network,http://www.chargepoint.com/,GPS,40.812190,-72.643446,03/22/2022,162270,2022-03-22 00:31:22,,,,06/12/2020,J1772
ELEC,DRYDEN STATION 1,93 E Main St,,Dryden,NY,13053,,888-758-4389,E,,Public,24 hours daily,,,2,,,ChargePoint Network,http://www.chargepoint.com/,GPS,42.491640,-76.286830,03/22/2022,164859,2022-03-22 00:31:22,,,,08/06/2020,J1772
ELEC,520806-Rockefeller Center,55 W 48th St,,New York City,NY,10036,,855-900-7584,E,,Public,24 hours daily,,,8,,,Greenlots,http://greenlots.com/,200-8,40.758305,-73.980311,03/22/2022,123040,2022-03-22 01:30:07,,,,05/25/2019,J1772
ELEC,PARKING GARAGE1 PARKING GARAGE,1 Lincoln St,,Auburn,NY,13021,,888-758-4389,E,,Public,24 hours daily,,,2,,,ChargePoint Network,http://www.chargepoint.com/,GPS,42.930293,-76.567186,03/22/2022,162333,2022-03-22 00:31:22,,,,06/12/2020,J1772
ELEC,BURNS MGT OXFORD 2,6213 Johnston Rd,,Albany,NY,12203,,888-758-4389,E,,Public,24 hours daily,,,2,,,ChargePoint Network,http://www.chargepoint.com/,GPS,42.684760,-73.868266,03/22/2022,118705,2022-03-22 00:31:22,,,,02/23/2019,J1772
ELEC,SIBLEY SQUARE MORTIMER GW FL3,83 Mortimer St,,Rochester,NY,14604,,888-758-4389,E,,Public,24 hours daily,,,2,,,ChargePoint Network,http://www.chargepoint.com/,GPS,43.157689,-77.607116,03/22/2022,180132,2022-03-22 00:31:22,,,,01/27/2021,J1772
ELEC,New York and Atlantic Railway Fresh Pond Yard,68-01 Otto Rd,,Glendale,NY,11385,,866-816-7584,E,,Public,24 hours daily,,,2,,,EV Connect,http://evconnect.com/,GPS,40.706231,-73.886487,04/08/2020,123128,2021-03-11 23:22:17,P,,,04/01/2019,J1772
ELEC,MPG 1-50 51st Ave - Tesla Destination,1-50 51st Ave,,Long Island City,NY,11101,,718-433-1420  877-798-3752,E,,Public,24 hours daily; pay lot; see valet for access,,,4,,,Tesla Destination,https://www.tesla.com/destination-charging,200-9,40.742713,-73.959323,11/03/2020,114968,2021-03-11 23:22:17,P,,,11/01/2018,TESLA
ELEC,35 SUTTON 1 35 SUTTON PL,35 Sutton Pl,,New York,NY,10022,,888-758-4389,E,,Public,24 hours daily,,,2,,,ChargePoint Network,http://www.chargepoint.com/,GPS,40.758358,-73.959700,03/22/2022,147425,2022-03-22 00:31:22,,,,11/01/2019,J1772
ELEC,The Veneto,250 East 53rd Street,,New York,NY,10022,,888-998-2546,E,,Public,MON: 24 hours | TUE: 24 hours | WED: 24 hours | THU: 24 hours | FRI: 24 hours | SAT: 24 hours | SUN: 24 hours,,,2,,,Blink Network,http://www.blinkcharging.com/,GPS,40.756766,-73.967481,03/21/2022,124140,2022-03-21 22:55:12,,,,06/21/2019,J1772
ELEC,Icon Parking 175 W 90th Street - Tesla Destination,175 W 90th St,,Manhattan,NY,10024,,212-874-8983  877-798-3752,E,,Public,24 hours daily; pay lot; see valet for access,,,4,,,Tesla Destination,https://www.tesla.com/destination-charging,200-8,40.790289,-73.972756,11/03/2020,150572,2021-03-11 23:22:17,P,,,09/30/2019,TESLA
ELEC,Nissan of Staten Island,1976 Hylan Blvd,,Staten Island,NY,10306,,718-447-3800,E,,Public,Dealership business hours,,,1,,,Non-Networked,,200-9,40.581432,-74.097694,06/09/2020,99500,2021-03-11 23:22:17,P,,,06/28/2018,J1772
ELEC,QUEENSBURY TOWN ACT CTR 1,742 Bay Rd,,Queensbury,NY,12804,,888-758-4389,E,,Public,24 hours daily,,,2,,,ChargePoint Network,http://www.chargepoint.com/,GPS,43.360570,-73.657000,03/22/2022,165632,2022-03-22 00:31:22,,,,08/28/2020,J1772
ELEC,854ELLICOTT 854 ELLICOTT 7,854 Ellicott St,,Buffalo,NY,14203,,888-758-4389,E,,Public,24 hours daily,,,2,,,ChargePoint Network,http://www.chargepoint.com/,GPS,42.901637,-78.867194,03/22/2022,180121,2022-03-22 00:31:22,,,,01/27/2021,J1772
ELEC,CLARKSTOWN TOC 1 & 2,10 Maple Ave,,New City,NY,10956,,888-758-4389,E,,Public,24 hours daily,,,2,,,ChargePoint Network,http://www.chargepoint.com/,GPS,41.147003,-73.988106,03/22/2022,175059,2022-03-22 00:31:22,,,,01/27/2021,J1772
ELEC,NYSE Thruway - NYPA,Plattekill Travel Plaza,,Plattekill,NY,12568,,866-816-7584,E,,Public,24 hours daily,A D M V,,,2,,EV Connect,http://evconnect.com/,GPS,41.577842,-74.085424,11/09/2020,167631,2021-03-11 23:22:17,SG,,,06/23/2020,CHADEMO J1772COMBO
ELEC,AMCR CASINO 1.2,873 State Route 37,,Akwesasne,NY,13655,,888-758-4389,E,,Public,24 hours daily,,,2,,,ChargePoint Network,http://www.chargepoint.com/,GPS,44.971275,-74.643180,03/22/2022,167256,2022-03-22 00:31:22,,,,10/03/2020,J1772
ELEC,HYATT PLACE HOTEL AMHERST 2,5020 Main Street,,Amherst,NY,14226,,888-758-4389,E,,Public,24 hours daily,,,2,,,ChargePoint Network,http://www.chargepoint.com/,GPS,42.960455,-78.769121,03/22/2022,174886,2022-03-22 00:31:22,,,,01/27/2021,J1772
ELEC,TPWC TPWC 13A,2594 Western Av,,Altamont,NY,12009,,888-758-4389,E,,Public,24 hours daily,,,1,,,ChargePoint Network,http://www.chargepoint.com/,GPS,42.714876,-73.933578,03/22/2022,211664,2022-03-22 00:31:22,,,,03/12/2022,J1772
ELEC,NATIONAL GRID SUNY IT,Campus Loop Rd,,Utica,NY,13502,,888-758-4389,E,,Public,24 hours daily,,,2,,,ChargePoint Network,http://www.chargepoint.com/,GPS,43.135329,-75.227342,03/22/2022,162236,2022-03-22 00:31:22,,,,06/12/2020,J1772
ELEC,ADAMS STATION 701 BAXTER,701 Baxter Ct,,Delmar,NY,12054,,888-758-4389,E,,Public,24 hours daily,,,2,,,ChargePoint Network,http://www.chargepoint.com/,GPS,42.608073,-73.849243,03/22/2022,165397,2022-03-22 00:31:22,,,,08/22/2020,J1772
ELEC,RPI 1 RPI 1,2 Colvin Cir,,Troy,NY,12180,,888-758-4389,E,,Public,24 hours daily,,,2,,,ChargePoint Network,http://www.chargepoint.com/,GPS,42.731386,-73.669086,03/22/2022,162264,2022-03-22 00:31:22,,,,06/12/2020,J1772
ELEC,E 47th Street - Tesla Supercharger,212 East 47th Street,,New York,NY,10017,,877-798-3752,E,,Public,24 hours daily; for Tesla use only,,,,4,,Tesla,https://www.tesla.com/supercharger,200-9,40.753356,-73.971685,10/11/2021,102336,2021-11-04 18:37:47,P,,,07/23/2018,TESLA
ELEC,PICOTTE 22 CORPORATE 2,22 Corporate Woods Blvd,,Albany,NY,12211,,888-758-4389,E,,Public,24 hours daily,,,2,,,ChargePoint Network,http://www.chargepoint.com/,GPS,42.681545,-73.768265,03/22/2022,181108,2022-03-22 00:31:22,,,,01/27/2021,J1772
ELEC,Energy Square,20 Cedar St,,Kingston,NY,12401,,845-331-2140,E,,Public,24 hours daily,,,4,,,AMPUP,https://ampup.io/,200-9,41.928591,-74.004355,07/14/2021,169706,2022-02-10 19:42:29,P,,,12/01/2020,J1772
ELEC,GOSHEN EVCS #1A STATION 1,128 W Main St,,Goshen,NY,10924,,888-758-4389,E,,Public,24 hours daily,,,2,,,ChargePoint Network,http://www.chargepoint.com/,GPS,41.401950,-74.326510,03/22/2022,162374,2022-03-22 00:31:22,,,,06/12/2020,J1772
ELEC,Western New York Welcome Center,2182 Alvin Rd,Accessible from I-190 exit 19 via Alvin Road,Grand Island,NY,14072,,518-436-2831,E,,Public,24 hours daily,,,,3,,Non-Networked,,GPS,43.019316,-78.974808,03/07/2022,104725,2022-03-07 19:49:53,P,,,08/01/2018,CHADEMO J1772COMBO
ELEC,SPRINGVALLEYAPT 1.2,92 High Rock Ave,,Saratoga Springs,NY,12866,,888-758-4389,E,,Public,24 hours daily,,,2,,,ChargePoint Network,http://www.chargepoint.com/,GPS,43.085308,-73.780610,03/22/2022,182245,2022-03-22 00:31:22,,,,01/27/2021,J1772
ELEC,City Parking RL Mercer Street - Tesla Destination,40  Mercer St,,New York,NY,10025,,212-219-3413  877-798-3752,E,,Public,24 hours daily; see valet for access,,,3,,,Tesla Destination,https://www.tesla.com/destination-charging,200-9,40.721244,-74.000920,11/03/2020,115118,2021-03-11 23:22:17,P,,,09/01/2017,J1772 TESLA
ELEC,NATIONAL GRID DAVIDSONS BREW,1043 U.S. 9,,Queensbury,NY,12804,,888-758-4389,E,,Public,24 hours daily,,,2,,,ChargePoint Network,http://www.chargepoint.com/,GPS,43.343451,-73.685700,03/22/2022,162244,2022-03-22 00:31:22,,,,06/12/2020,J1772
ELEC,TEK AUTOMOTIVE CAP ALBANY 1,350 New Karner Rd,,Colonie,NY,12205,,888-758-4389,E,,Public,24 hours daily,,,2,,,ChargePoint Network,http://www.chargepoint.com/,GPS,42.730965,-73.852883,03/22/2022,193354,2022-03-22 00:31:22,,,,07/30/2021,J1772
ELEC,Icon Parking - Hudson,375 Hudson Street,Located between King St & Houston St.,New York,NY,10014,,888-998-2546,E,,Public,MON: 24 hours | TUE: 24 hours | WED: 24 hours | THU: 24 hours | FRI: 24 hours | SAT: 24 hours | SUN: 24 hours,,,1,,,Blink Network,http://www.blinkcharging.com/,GPS,40.728704,-74.007650,03/21/2022,189759,2022-03-21 22:55:12,,,,05/17/2021,J1772
ELEC,S.A.N.Y. PARKING 1,160 School Ln,,Frankfort,NY,13340,,888-758-4389,E,,Public,24 hours daily,,,1,,,ChargePoint Network,http://www.chargepoint.com/,GPS,43.076120,-75.169070,03/22/2022,180881,2022-03-22 00:31:22,,,,01/27/2021,J1772
ELEC,MB OF BUFFALO EV MERC BUFF 2,8185 Main St,,Williamsville,NY,14221,,888-758-4389,E,,Public,Mon 8:00am - 6:00pm; Tue 8:00am - 6:00pm; Wed 8:00am - 6:00pm; Thu 8:00am - 6:00pm; Fri 8:00am - 6:00pm; Sat 9:00am - 5:00pm,,,2,,,ChargePoint Network,http://www.chargepoint.com/,GPS,42.964803,-78.689339,03/22/2022,205855,2022-03-22 00:31:22,,,,02/04/2022,J1772
ELEC,PICOTTE 11 CORPORATE 5,11 Corporate Woods Blvd,,Albany,NY,12211,,888-758-4389,E,,Public,24 hours daily,,,2,,,ChargePoint Network,http://www.chargepoint.com/,GPS,42.683430,-73.766670,03/22/2022,163514,2022-03-22 00:31:22,,,,06/20/2020,J1772
ELEC,TOWN GLENVILLE SENIOR CTR EV4,Glenville Senior Center 32 Worden Rd,,Glenville,NY,12302,,888-758-4389,E,,Public,24 hours daily,,,2,,,ChargePoint Network,http://www.chargepoint.com/,GPS,42.851614,-73.946766,03/22/2022,175626,2022-03-22 00:31:22,,,,01/27/2021,J1772
ELEC,DOCK 1 PENN STATION1,272 W 34th St,,New York,NY,10119,,888-758-4389,E,,Public,24 hours daily,,,1,,,ChargePoint Network,http://www.chargepoint.com/,GPS,40.751614,-73.992601,03/22/2022,205383,2022-03-22 00:31:22,,,,01/27/2022,J1772
ELEC,GGMC Parking 10 W 66th St Garage - Tesla Destination,10 W 66th St,,New York,NY,10023,,212-874-1100  877-798-3752,E,,Public,24 hours daily; see valet for access,,,2,,,Tesla Destination,https://www.tesla.com/destination-charging,200-8,40.772308,-73.978966,11/03/2020,114987,2021-03-11 23:22:17,P,,,01/01/2016,TESLA
ELEC,CORNELL FOREST HOME 1,37 Forest Home Dr,,Ithaca,NY,14850,,888-758-4389,E,,Public,24 hours daily,,,2,,,ChargePoint Network,http://www.chargepoint.com/,GPS,42.450492,-76.478520,03/22/2022,173155,2022-03-22 00:31:22,,,,01/27/2021,J1772
ELEC,MARKET CENTER 55 RAILROAD 1.3,55 Railroad Pl,,Saratoga Springs,NY,12866,,888-758-4389,E,,Public,24 hours daily,,,2,,,ChargePoint Network,http://www.chargepoint.com/,GPS,43.082493,-73.787850,03/22/2022,181898,2022-03-22 00:31:22,,,,01/27/2021,J1772
ELEC,HARMONY MILLS 1 WEST 2 2.1,100 N Mohawk St,,Cohoes,NY,12047,,888-758-4389,E,,Public,24 hours daily,,,2,,,ChargePoint Network,http://www.chargepoint.com/,GPS,42.778606,-73.702920,03/22/2022,174731,2022-03-22 00:31:22,,,,01/27/2021,J1772
ELEC,MP 225 LLC NS1-100 JAY ST,100 Jay St,,New York,NY,11201,,888-758-4389,E,,Public,24 hours daily,,,2,,,ChargePoint Network,http://www.chargepoint.com/,GPS,40.701820,-73.986824,03/22/2022,162487,2022-03-22 00:31:22,,,,06/12/2020,J1772
ELEC,CENTROTHERM CENTRO F1,427 S Pearl St,,Albany,NY,12202,,888-758-4389,E,,Public,24 hours daily,,,1,,,ChargePoint Network,http://www.chargepoint.com/,GPS,42.637853,-73.758948,03/22/2022,158535,2022-03-22 00:31:22,,,,06/05/2020,J1772
ELEC,Park N Go - E 121 St - Tesla Destination,210 E 121st St,,New York,NY,10035,,877-798-3752  877-798-3752,E,,Public,24 hours daily; for customer use only; see front desk for access,,,4,,,Tesla Destination,https://www.tesla.com/destination-charging,200-8,40.800795,-73.937382,11/03/2020,169011,2021-03-11 23:22:17,P,,,11/03/2020,TESLA
ELEC,SCCC AMMERMAN 5,College Rd,,Farmingville,NY,11738,,888-758-4389,E,,Public,24 hours daily,,,2,,,ChargePoint Network,http://www.chargepoint.com/,GPS,40.844511,-73.055317,03/22/2022,193749,2022-03-22 00:31:22,,,,08/11/2021,J1772
ELEC,VANDERZEE COMM EV1,2117 NY-7 Vanderzee Commerical Lot,,Troy,NY,12180,,888-758-4389,E,,Public,24 hours daily,,,2,,,ChargePoint Network,http://www.chargepoint.com/,GPS,42.807076,-73.545144,03/22/2022,190056,2022-03-22 00:31:22,,,,05/25/2021,J1772
ELEC,TOWN GLENVILLE SENIOR CTR EV3,Glenville Senior Center 32 Worden Rd,,Glenville,NY,12302,,888-758-4389,E,,Public,24 hours daily,,,2,,,ChargePoint Network,http://www.chargepoint.com/,GPS,42.851647,-73.946779,03/22/2022,156057,2022-03-22 00:31:22,,,,05/05/2020,J1772
ELEC,GreenStar Co-op,770 Cascadilla St,,Ithaca,NY,14850,,866-816-7584,E,,Public - Credit card at all times,24 hours daily; Also accepts Paypal,A D M V,,2,,,EV Connect,http://evconnect.com/,200-9,42.445432,-76.509798,10/09/2020,166347,2021-03-11 23:22:17,P,,,05/26/2020,J1772
ELEC,NATIONAL GRID BONNER HALL.,Putnam Way,,Buffalo,NY,14228,,888-758-4389,E,,Public,24 hours daily,,,2,,,ChargePoint Network,http://www.chargepoint.com/,GPS,43.001813,-78.788469,03/22/2022,162387,2022-03-22 00:31:22,,,,06/12/2020,J1772
ELEC,1 WATERLINE STATION#6,10 Riverside Blvd,,New York,NY,10069,,888-758-4389,E,,Public,24 hours daily,,,2,,,ChargePoint Network,http://www.chargepoint.com/,GPS,40.772912,-73.992589,03/22/2022,207889,2022-03-22 00:31:22,,,,03/10/2022,J1772
ELEC,35 SUTTON 1 SUTTON PL 2,35 Sutton Pl,,New York,NY,10022,,888-758-4389,E,,Public,24 hours daily,,,2,,,ChargePoint Network,http://www.chargepoint.com/,GPS,40.758240,-73.959670,03/22/2022,174616,2022-03-22 00:31:22,,,,01/27/2021,J1772
ELEC,Home2 Suites by Hilton Oswego - Tesla Destination,252 NY-104,,Oswego,NY,13126,,315-343-2000  877-798-3752,E,,Public,24 hours daily; for customer use only,,,3,,,Tesla Destination,https://www.tesla.com/destination-charging,GPS,43.460055,-76.482728,11/03/2020,115206,2021-03-11 23:22:17,P,,,11/01/2018,J1772 TESLA
ELEC,Marriott Hauppauge,850 Veterans Memorial Hwy,,Hauppauge,NY,11788,,866-816-7584,E,,Public - Call ahead,24 hours daily; for hotel guest use only,,,2,,,EV Connect,http://evconnect.com/,GPS,40.819636,-73.204528,12/03/2020,94841,2021-03-11 23:22:17,P,,,12/19/2013,J1772
ELEC,West 90th Garage Corp,101 W 90th St,,New York,NY,10024,,866-816-7584,E,,Public - Credit card at all times,24 hours daily,A D Debit M V,,6,,,EV Connect,http://evconnect.com/,GPS,40.789381,-73.970823,11/04/2021,198017,2021-12-06 18:36:15,P,,,10/19/2021,J1772
ELEC,Luce Ristorante - Tesla Destination,1053 Oyster Bay Rd,,East Norwich,NY,11732,,516-624-8330  877-798-3752,E,,Public,24 hours daily; for customer use only; see front desk for access,,,3,,,Tesla Destination,https://www.tesla.com/destination-charging,200-9,40.843546,-73.532489,11/03/2020,114938,2021-03-11 23:22:17,P,,,08/15/2016,J1772 TESLA
ELEC,Pratt and Whitney HMI Metal Powders,2395 Main St,,Clayville,NY,13322,,866-816-7584,E,,Public - Credit card at all times,24 hours daily; Also accepts Paypal,A D M V,,2,,,EV Connect,http://evconnect.com/,200-9,42.978010,-75.249586,10/09/2020,166427,2021-03-11 23:22:17,P,,,01/16/2020,J1772
ELEC,IMPark 302 2nd St - Tesla Destination,302  2nd St,,Brooklyn,NY,11215,,718-499-1235  877-798-3752,E,,Public,24 hours daily; pay lot; see valet for access,,,4,,,Tesla Destination,https://www.tesla.com/destination-charging,200-9,40.674253,-73.985057,11/03/2020,150581,2021-03-11 23:22:17,P,,,09/30/2019,TESLA
ELEC,OSSINING TOWN RYDER PARK,Ryder Park 43 Morningside Drive,,Ossining,NY,10562,,888-758-4389,E,,Public,24 hours daily,,,2,,,ChargePoint Network,http://www.chargepoint.com/,GPS,41.166687,-73.827925,03/22/2022,162295,2022-03-22 00:31:22,,,,06/12/2020,J1772
ELEC,ROSENBLUM300 100 GREAT OAKS,100 Great Oaks Blvd,,Albany,NY,12203,,888-758-4389,E,,Public,24 hours daily,,,2,,,ChargePoint Network,http://www.chargepoint.com/,GPS,42.683264,-73.846461,03/22/2022,120975,2022-03-22 00:31:22,,,,03/27/2019,J1772
ELEC,MIDDLE COUNTRY SELDEN,575 Middle Country Rd,,Selden,NY,11784,,888-758-4389,E,,Public,24 hours daily,,,2,,,ChargePoint Network,http://www.chargepoint.com/,GPS,40.867476,-73.033034,03/22/2022,162152,2022-03-22 00:31:22,,,,06/12/2020,J1772
ELEC,St. Josephs Hospital - Tesla Destination,4295 Hempstead Turnpike,,Bethpage,NY,11714,,877-798-3752  877-798-3752,E,,Public,24 hours daily; for customer use only; see front desk for access,,,4,,,Tesla Destination,https://www.tesla.com/destination-charging,200-8,40.725995,-73.478764,11/03/2020,169127,2021-03-11 23:22:17,P,,,11/03/2020,TESLA
ELEC,TSRC LODGE,5218 Patrick Rd,,Verona,NY,13478,,888-758-4389,E,,Public,24 hours daily,,,2,,,ChargePoint Network,http://www.chargepoint.com/,GPS,43.115034,-75.587105,03/22/2022,196103,2022-03-22 00:31:22,,,,09/19/2021,J1772
ELEC,NYC FLEET DPRWFMARNA_1_L3,109-5 Marina Rd,,Corona,NY,11368,,888-758-4389,E,,Public,24 hours daily,,,,1,,ChargePoint Network,http://www.chargepoint.com/,GPS,40.760609,-73.857002,03/22/2022,187658,2022-03-22 00:31:22,,,,04/16/2021,CHADEMO J1772COMBO
ELEC,Propark 401 W 110th Street - Tesla Destination,401 W 110th St,,New York,NY,10025,,212-864-7164  877-798-3752,E,,Public,24 hours daily; see valet for access,,,3,,,Tesla Destination,https://www.tesla.com/destination-charging,200-9,40.802368,-73.961689,11/03/2020,115123,2021-03-11 23:22:17,P,,,09/01/2017,J1772 TESLA
ELEC,ADELPHI UNIV STATION 03,1 South Ave,,Garden City,NY,11530,,888-758-4389,E,,Public,24 hours daily,,,2,,,ChargePoint Network,http://www.chargepoint.com/,GPS,40.719561,-73.650096,03/22/2022,171554,2022-03-22 00:31:22,,,,01/27/2021,J1772
ELEC,LIBRARY 1 HERKIMER,245 N Main St,,Herkimer,NY,13350,,888-758-4389,E,,Public,24 hours daily,,,2,,,ChargePoint Network,http://www.chargepoint.com/,GPS,43.027471,-74.988937,03/22/2022,162318,2022-03-22 00:31:22,,,,06/12/2020,J1772
ELEC,GREIG FARM GREIG FARM 2,227 Pitcher Ln,,Red Hook,NY,12571,,888-758-4389,E,,Public,24 hours daily,,,2,,,ChargePoint Network,http://www.chargepoint.com/,GPS,42.027948,-73.854998,03/22/2022,202139,2022-03-22 00:31:22,,,,12/08/2021,J1772
ELEC,Bath,16 E William St,,Bath,NY,14810,,855-900-7584,E,,Public,24 hours daily,,,,3,,Greenlots,http://greenlots.com/,GPS,42.334259,-77.316913,03/22/2022,205276,2022-03-22 01:30:07,,,,01/25/2022,J1772COMBO
ELEC,BURNS MGT SGA 1,21 Seward St,,Saratoga Springs,NY,12866,,888-758-4389,E,,Public,24 hours daily,,,2,,,ChargePoint Network,http://www.chargepoint.com/,GPS,43.087501,-73.795357,03/22/2022,180095,2022-03-22 00:31:22,,,,01/27/2021,J1772
ELEC,RIT EV CHARGING ADMIN LOT,Clark Drive,,Rochester,NY,14623,,888-758-4389,E,,Public,24 hours daily,,,2,,,ChargePoint Network,http://www.chargepoint.com/,GPS,43.086112,-77.673738,03/22/2022,180153,2022-03-22 00:31:22,,,,01/27/2021,J1772
ELEC,Highrise Parking,210 W 71st Street,Located between Broadway & West End Ave.,New York,NY,10023,,888-998-2546,E,,Public,MON: 24 hours | TUE: 24 hours | WED: 24 hours | THU: 24 hours | FRI: 24 hours | SAT: 24 hours | SUN: 24 hours,,,1,,,Blink Network,http://www.blinkcharging.com/,GPS,40.777905,-73.982299,03/21/2022,200627,2022-03-21 22:55:12,,,,11/05/2021,J1772
ELEC,2 WEST AVE 2 WEST 1.2,2 West Ave,,Saratoga Springs,NY,12866,,888-758-4389,E,,Public,24 hours daily,,,2,,,ChargePoint Network,http://www.chargepoint.com/,GPS,43.084293,-73.803055,03/22/2022,170398,2022-03-22 00:31:22,,,,12/19/2020,J1772
ELEC,EVolve NY - Watertown,1242 Arsenal St,Near Starbucks,Watertown,NY,13601,,914-287-4200,E,,Public,24 hours daily,,,1,,,Non-Networked,,GPS,43.979207,-75.946384,12/03/2020,168319,2021-03-11 23:22:17,P,,,11/02/2020,J1772
ELEC,IBEW LU86 IBEW LU86,2300 E River Rd,,Rochester,NY,14623,,888-758-4389,E,,Public,24 hours daily,,,2,,,ChargePoint Network,http://www.chargepoint.com/,GPS,43.096721,-77.676694,03/22/2022,162168,2022-03-22 00:31:22,,,,06/12/2020,J1772
ELEC,Woodbury Common Premium Outlets,498 Red Apple Ct,,Central Valley,NY,10917,,877-455-3833,E,,Public,Mon 7:00am - 8:00pm; Tue 7:00am - 8:00pm; Wed 7:00am - 8:00pm; Thu 7:00am - 8:00pm; Fri 7:00am - 9:00pm; Sat 7:00am - 9:00pm; Sun 7:00am - 9:00pm,,,2,2,,eVgo Network,https://www.evgo.com/,GPS,41.313287,-74.125236,03/22/2022,198764,2022-03-22 01:26:59,,,,10/25/2021,CHADEMO J1772 J1772COMBO
ELEC,BURNS MGT GASLIGHT 1,69-71 Hamilton St,,Saratoga Springs,NY,12866,,888-758-4389,E,,Public,24 hours daily,,,2,,,ChargePoint Network,http://www.chargepoint.com/,GPS,43.076363,-73.788431,03/22/2022,120963,2022-03-22 00:31:22,,,,03/27/2019,J1772
ELEC,New Systems,337 E 64th St,Located between 1st Ave & 2nd Ave. Attendant will assist in charging vehicle.  Parking rates apply. Inquire within.,New York,NY,10065,,888-998-2546,E,,Public,MON: 24 hours | TUE: 24 hours | WED: 24 hours | THU: 24 hours | FRI: 24 hours | SAT: 24 hours | SUN: 24 hours,,,2,,,Blink Network,http://www.blinkcharging.com/,GPS,40.763200,-73.960185,03/21/2022,187918,2022-03-21 22:55:12,,,,04/23/2021,J1772
ELEC,New York University - Plaza Nursery School,110 Bleecker St,,New York,NY,10011,,866-816-7584,E,,Public,24 hours daily,,,2,,,EV Connect,http://evconnect.com/,GPS,40.727362,-73.997533,05/06/2020,123058,2021-03-11 23:22:17,P,,,04/01/2019,J1772
ELEC,SAMARITAN TROY FLR 1 EV 2,2215 Burdett Ave,,Troy,NY,12180,,888-758-4389,E,,Public,24 hours daily,,,2,,,ChargePoint Network,http://www.chargepoint.com/,GPS,42.734481,-73.673165,03/22/2022,185306,2022-03-22 00:31:22,,,,02/23/2021,J1772
ELEC,Sister of Charity Hospital - Boiler Sidewalk,2157 Main St,,Buffalo,NY,14214,,866-816-7584,E,,Public - Credit card at all times,24 hours daily,A D Debit M V,,2,,,EV Connect,http://evconnect.com/,GPS,42.928032,-78.847609,01/10/2022,202629,2022-02-10 19:42:29,P,,,12/13/2021,J1772
ELEC,Holiday Inn Express Canandaigua - Finger Lakes - Tesla Destination,330 Eastern Blvd,,Canandaigua,NY,14424,,585-396-3669  877-798-3752,E,,Public,24 hours daily; for customer use only; see front desk for access,,,3,,,Tesla Destination,https://www.tesla.com/destination-charging,200-8,42.878166,-77.255793,11/03/2020,114920,2021-03-11 23:22:17,P,,,11/01/2018,J1772 TESLA
ELEC,iPark 200 West Garage Corp. - Tesla Destination,220 W 26th St,,New York,NY,10001,,646-486-2148  877-798-3752,E,,Public,24 hours daily; pay lot; see valet for access,,,3,,,Tesla Destination,https://www.tesla.com/destination-charging,200-9,40.746142,-73.995221,11/03/2020,115055,2021-03-11 23:22:17,P,,,11/01/2018,J1772 TESLA
ELEC,RRH ST MARYS 1,89 Genesee St,,Rochester,NY,14611,,888-758-4389,E,,Public,24 hours daily,,,2,,,ChargePoint Network,http://www.chargepoint.com/,GPS,43.149390,-77.636613,03/22/2022,174454,2022-03-22 00:31:22,,,,01/27/2021,J1772
ELEC,HOLYCROSS HOLY CROSS MONA,1615 Rte 9W,,West Park,NY,12493,,888-758-4389,E,,Public,24 hours daily,,,2,,,ChargePoint Network,http://www.chargepoint.com/,GPS,41.802999,-73.957188,03/22/2022,201365,2022-03-22 00:31:22,,,,11/19/2021,J1772
ELEC,HARMONY MILLS 1 WEST 1,Mohawk St & Cohoes Mills,,Cohoes,NY,12047,,888-758-4389,E,,Public,24 hours daily,,,2,,,ChargePoint Network,http://www.chargepoint.com/,GPS,42.781628,-73.705720,03/22/2022,174734,2022-03-22 00:31:22,,,,01/27/2021,J1772
ELEC,"Brixmor Erie Canal Centre (Syracuse, NY)",3469 ERIE BLVD,,Syracuse,NY,13214,,833-632-2778,E,,Public,24 hours daily,,,,4,,Electrify America,https://www.electrifyamerica.com/,GPS,43.046061,-76.066928,03/22/2022,192946,2022-03-22 01:32:58,,,,07/17/2021,CHADEMO J1772COMBO
ELEC,NATIONAL GRID ST LAWRENCE,40 Leigh St,,Canton,NY,13617,,888-758-4389,E,,Public,24 hours daily,,,2,,,ChargePoint Network,http://www.chargepoint.com/,GPS,44.586170,-75.163936,03/22/2022,162205,2022-03-22 00:31:22,,,,06/12/2020,J1772
ELEC,799 SENECA STATION 2,799 Seneca St,,Buffalo,NY,14210,,888-758-4389,E,,Public,Mon 5:00pm - 10:00pm; Tue 5:00pm - 10:00pm; Wed 5:00pm - 10:00pm; Thu 5:00pm - 10:00pm; Fri 5:00pm - 10:00pm; Sat 8:00am - 10:00pm; Sun 8:00am - 10:00pm,,,1,,,ChargePoint Network,http://www.chargepoint.com/,GPS,42.875115,-78.847547,03/22/2022,191243,2022-03-22 00:31:22,,,,06/19/2021,J1772
